year,ncessch,school_id,school_name,leaid,lea_name,state_leaid,seasch,street_mailing,city_mailing,state_mailing,zip_mailing,street_location,city_location,state_location,zip_location,phone,fips,latitude,longitude,csa,cbsa,urban_centric_locale,county_code,school_level,school_type,school_status,lowest_grade_offered,highest_grade_offered,bureau_indian_education,title_i_status,title_i_eligible,title_i_schoolwide,charter,magnet,shared_time,virtual,teachers_fte,free_lunch,reduced_price_lunch,free_or_reduced_price_lunch,elem_cedp,high_cedp,middle_cedp,ungrade_cedp,enrollment,state_leg_district_lower,state_leg_district_upper,ncessch_num,congress_district_id,direct_certification,lunch_program
2021,060000103278,0603278,Vasquez High,0600001,Acton-Agua Dulce Unified,CA-1975309,1975309-1995786,33630 Red Rover Mine Rd.,Acton,CA,93510,33630 Red Rover Mine Rd.,Acton,CA,93510,(661)269-0451,6,34.492021,-118.215978,348,31080,41,6037,3,1,1,9.0,12.0,,-1.0,-1.0,-1.0,0,-1.0,-1.0,-1.0,16.0,170.0,25.0,195.0,0,1,0,0,353.0,06036,06021,60000103278,625,101.0,-1.0
2021,060000107534,0607534,Meadowlark Elementary,0600001,Acton-Agua Dulce Unified,CA-1975309,1975309-6115679,3015 W. Sacramento St.,Acton,CA,93510,3015 W. Sacramento St.,Acton,CA,93510,(661)269-8140,6,34.474318,-118.185622,348,31080,42,6037,1,1,1,0.0,4.0,,-1.0,-1.0,-1.0,0,-1.0,-1.0,-1.0,13.0,169.0,14.0,183.0,1,0,0,0,305.0,06036,06021,60000107534,625,110.0,-1.0
2021,060000109444,0609444,High Desert,0600001,Acton-Agua Dulce Unified,CA-1975309,1975309-6107494,3620 Antelope Woods Rd.,Acton,CA,93510,3620 Antelope Woods Rd.,Acton,CA,93510,(661)269-0310,6,34.490948,-118.195128,348,31080,41,6037,2,1,1,5.0,8.0,,-1.0,-1.0,-1.0,0,-1.0,-1.0,-1.0,10.0,157.0,27.0,184.0,0,0,1,0,277.0,06036,06021,60000109444,625,89.0,-1.0
2021,060000210346,0610346,California School for the Blind,0600002,California School for the Blind (State Special Schl),CA-0131609,0131609-0131755,500 Walnut Ave.,Fremont,CA,94536,500 Walnut Ave.,Fremont,CA,94536,(510)794-3800,6,37.561797,-121.96549,488,41860,21,6001,4,2,1,0.0,12.0,,-1.0,-1.0,-1.0,0,-1.0,-1.0,-1.0,13.0,59.0,0.0,59.0,1,1,1,0,62.0,06020,06010,60000210346,617,15.0,-1.0
2021,060000310347,0610347,California School for the Deaf-Fremont,0600003,California School for the Deaf-Fremont (State Special Schl),CA-0131617,0131617-0131763,39350 Gallaudet Dr.,Fremont,CA,94538,39350 Gallaudet Dr.,Fremont,CA,94538,(510)794-3666,6,37.559764,-121.963353,488,41860,21,6001,4,2,1,0.0,12.0,,-1.0,-1.0,-1.0,0,-1.0,-1.0,-1.0,68.0,315.0,0.0,315.0,1,1,1,0,318.0,06020,06010,60000310347,617,84.0,-1.0
2021,060000608773,0608773,Manor Elementary,0600006,Ross Valley Elementary,CA-2175002,2175002-6024277,150 Oak Manor Dr.,Fairfax,CA,94930,150 Oak Manor Dr.,Fairfax,CA,94930,(415)453-1544,6,37.997108,-122.594314,488,41860,21,6041,1,1,1,0.0,5.0,,-1.0,-1.0,-1.0,0,-1.0,-1.0,-1.0,9.0,39.0,3.0,42.0,1,0,0,0,225.0,06010,06002,60000608773,602,34.0,-1.0
2021,060000608774,0608774,White Hill Middle,0600006,Ross Valley Elementary,CA-2175002,2175002-6024285,101 Glen Dr.,Fairfax,CA,94930,101 Glen Dr.,Fairfax,CA,94930,(415)454-8390,6,38.00343,-122.606727,488,41860,21,6041,2,1,1,6.0,8.0,,-1.0,-1.0,-1.0,0,-1.0,-1.0,-1.0,35.0,72.0,7.0,79.0,0,0,1,0,664.0,06010,06002,60000608774,602,61.0,-1.0
2021,060000608775,0608775,Brookside Elementary,0600006,Ross Valley Elementary,CA-2175002,2175002-6024681,116 Butterfield Rd.,San Anselmo,CA,94960,116 Butterfield Rd.,San Anselmo,CA,94960,(415)453-2948,6,37.991008,-122.575464,488,41860,21,6041,1,1,1,0.0,5.0,,-1.0,-1.0,-1.0,0,-1.0,-1.0,-1.0,13.0,18.0,1.0,19.0,1,0,0,0,288.0,06010,06002,60000608775,602,16.0,-1.0
2021,060000608776,0608776,Wade Thomas Elementary,0600006,Ross Valley Elementary,CA-2175002,2175002-6024731,150 Ross Ave.,San Anselmo,CA,94960,150 Ross Ave.,San Anselmo,CA,94960,(415)454-4603,6,37.971374,-122.567277,488,41860,21,6041,1,1,1,0.0,5.0,,-1.0,-1.0,-1.0,0,-1.0,-1.0,-1.0,13.0,30.0,0.0,30.0,1,0,0,0,321.0,06010,06002,60000608776,602,28.0,-1.0
2021,060000612911,0612911,Hidden Valley Elementary,0600006,Ross Valley Elementary,CA-2175002,2175002-0124578,46 Green Valley Ct.,San Anselmo,CA,94960,46 Green Valley Ct.,San Anselmo,CA,94960,(415)454-7683,6,38.006047,-122.573498,488,41860,21,6041,1,1,1,0.0,5.0,,-1.0,-1.0,-1.0,0,-1.0,-1.0,-1.0,11.0,14.0,2.0,16.0,1,0,0,0,241.0,06010,06002,60000612911,602,14.0,-1.0
2021,060000710348,0610348,California School for the Deaf-Riverside,0600007,CA Sch for the Deaf-Riverside (State Special Schl),CA-3331625,3331625-3330834,3044 Horace St.,Riverside,CA,92506,3044 Horace St.,Riverside,CA,92506,(951)248-7700,6,33.944558,-117.381366,348,40140,11,6065,4,2,1,0.0,12.0,,-1.0,-1.0,-1.0,0,-1.0,-1.0,-1.0,64.0,67.0,0.0,67.0,1,1,1,0,298.0,06061,06031,60000710348,641,63.0,-1.0
2021,060000901478,0601478,Sierra Madre High (Continuation),0600009,Cuyama Joint Unified,CA-4275010,4275010-4230173,2300 Highway 166,New Cuyama,CA,93254,4500 Highway 166,New Cuyama,CA,93254,(661)766-2293,6,34.943828,-119.674697,-2,42200,43,6083,3,4,1,9.0,12.0,,-1.0,-1.0,-1.0,0,-1.0,-1.0,-1.0,,,,,0,1,0,0,0.0,06035,06019,60000901478,624,,-1.0
2021,060000908779,0608779,Cuyama Valley High,0600009,Cuyama Joint Unified,CA-4275010,4275010-4231205,2300 Highway 166,New Cuyama,CA,93254,4500 Highway 166,New Cuyama,CA,93254,(661)766-2293,6,34.943828,-119.674697,-2,42200,43,6083,3,1,1,9.0,12.0,,-1.0,-1.0,-1.0,0,-1.0,-1.0,-1.0,4.0,28.0,2.0,30.0,0,1,0,0,52.0,06035,06019,60000908779,624,21.0,-1.0
2021,060000908780,0608780,Cuyama Elementary,0600009,Cuyama Joint Unified,CA-4275010,4275010-6045389,2300 Highway 166,New Cuyama,CA,93254,2300 Highway 166,New Cuyama,CA,93254,(661)766-2642,6,34.93224,-119.609234,-2,42200,43,6083,1,1,1,0.0,8.0,,-1.0,-1.0,-1.0,0,-1.0,-1.0,-1.0,6.0,90.0,5.0,95.0,1,0,1,0,120.0,06035,06019,60000908780,624,60.0,-1.0
2021,060001109065,0609065,Herlong High,0600011,Fort Sage Unified,CA-1875036,1875036-1833409,PO Box 97,Herlong,CA,96113,200 DS Hall,Herlong,CA,96113,(530)827-2101,6,40.139068,-120.144221,-2,45000,43,6035,3,1,1,9.0,12.0,,-1.0,-1.0,-1.0,0,-1.0,-1.0,-1.0,4.0,21.0,5.0,26.0,0,1,0,0,42.0,06001,06001,60001109065,601,17.0,-1.0
2021,060001109066,0609066,Fort Sage Middle,0600011,Fort Sage Unified,CA-1875036,1875036-6010714,PO Box 35,Herlong,CA,96113,200 DS Hall,Herlong,CA,96113,(530)827-2101,6,40.139068,-120.144221,-2,45000,43,6035,2,1,1,7.0,8.0,,-1.0,-1.0,-1.0,0,-1.0,-1.0,-1.0,1.0,11.0,0.0,11.0,0,0,1,0,14.0,06001,06001,60001109066,601,8.0,-1.0
2021,060001109068,0609068,Sierra Primary,0600011,Fort Sage Unified,CA-1875036,1875036-6096341,PO Box 35,Herlong,CA,96113,100 DS Hall St.,Herlong,CA,96113,(530)827-2126,6,40.141423,-120.135161,-2,45000,43,6035,1,1,1,0.0,6.0,,-1.0,-1.0,-1.0,0,-1.0,-1.0,-1.0,5.0,34.0,3.0,37.0,1,0,0,0,62.0,06001,06001,60001109068,601,29.0,-1.0
2021,060001112763,0612763,Mt. Lassen Charter,0600011,Fort Sage Unified,CA-1875036,1875036-0121657,PO Box 35,Herlong,CA,96113,100 David S Hall St.,Herlong,CA,96113,(530)827-2129,6,40.4211,-120.650932,-2,45000,33,6035,4,1,1,0.0,12.0,,-1.0,-1.0,-1.0,1,-1.0,-1.0,-1.0,6.0,49.0,23.0,72.0,1,1,1,0,123.0,06001,06001,60001112763,601,36.0,-1.0
2021,060001206852,0606852,Washington Elementary,0600012,Twin Ridges Elementary,CA-2966415,2966415-6027205,16661 Old Mill Rd.,Nevada City,CA,95959,1 Sch St.,Washington,CA,95986,(530)265-2880,6,39.358171,-120.800003,472,46020,43,6057,1,1,1,0.0,8.0,,-1.0,-1.0,-1.0,0,-1.0,-1.0,-1.0,1.0,,,,1,0,1,0,6.0,06001,06001,60001206852,601,,-1.0
2021,060001209206,0609206,Grizzly Hill,0600012,Twin Ridges Elementary,CA-2966415,2966415-6089403,16661 Old Mill Rd.,Nevada City,CA,95959,16661 Old Mill Rd.,Nevada City,CA,95959,(530)265-9052,6,39.373765,-120.995434,472,46020,42,6057,1,1,1,0.0,8.0,,-1.0,-1.0,-1.0,0,-1.0,-1.0,-1.0,5.0,65.0,5.0,70.0,1,0,1,0,87.0,06001,06001,60001209206,601,59.0,-1.0
2021,060001213453,0613453,Twin Ridges Special Education Preschool,0600012,Twin Ridges Elementary,CA-2966415,2966415-0119883,16661 Old Mill Rd.,Nevada City,CA,95959,16661 Old Mill Rd.,Nevada City,CA,95959,(530)265-9052,6,39.373765,-120.995434,472,46020,42,6057,-1,1,1,,,,-1.0,-1.0,-1.0,0,-1.0,-1.0,-1.0,,,,,0,1,0,1,,06001,06001,60001213453,601,,-1.0
2021,060001300805,0600805,Antelope Creek Elementary,0600013,Rocklin Unified,CA-3175085,3175085-6110647,6185 Springview Dr.,Rocklin,CA,95677,6185 Springview Dr.,Rocklin,CA,95677,(916)632-1095,6,38.7778,-121.2581,472,40900,21,6061,1,1,1,0.0,6.0,,-1.0,-1.0,-1.0,0,-1.0,-1.0,-1.0,22.0,151.0,6.0,157.0,1,0,0,0,474.0,06006,06001,60001300805,604,130.0,-1.0
2021,060001302405,0602405,Rocklin High,0600013,Rocklin Unified,CA-3175085,3175085-3130150,5301 Victory Ln.,Rocklin,CA,95765,5301 Victory Ln.,Rocklin,CA,95765,(916)632-1600,6,38.8143,-121.2511,472,40900,21,6061,3,1,1,9.0,12.0,,-1.0,-1.0,-1.0,0,-1.0,-1.0,-1.0,95.0,284.0,15.0,299.0,0,1,0,0,2210.0,06006,06001,60001302405,604,259.0,-1.0
2021,060001303571,0603571,Breen Elementary,0600013,Rocklin Unified,CA-3175085,3175085-6111975,2751 Breen Dr.,Rocklin,CA,95765,2751 Breen Dr.,Rocklin,CA,95765,(916)632-1155,6,38.8181,-121.2597,472,40900,21,6061,1,1,1,0.0,6.0,,-1.0,-1.0,-1.0,0,-1.0,-1.0,-1.0,19.0,57.0,0.0,57.0,1,0,0,0,424.0,06006,06001,60001303571,604,54.0,-1.0
2021,060001306176,0606176,Victory High,0600013,Rocklin Unified,CA-3175085,3175085-3130200,3250 Victory Dr.,Rocklin,CA,95765,3250 Victory Dr.,Rocklin,CA,95765,(916)632-3195,6,38.815698,-121.254325,472,40900,21,6061,3,4,1,9.0,12.0,,-1.0,-1.0,-1.0,0,-1.0,-1.0,-1.0,6.0,34.0,1.0,35.0,0,1,0,0,82.0,06006,06001,60001306176,604,32.0,-1.0
2021,060001308256,0608256,Twin Oaks Elementary,0600013,Rocklin Unified,CA-3175085,3175085-6115844,2835 Club Dr.,Rocklin,CA,95765,2835 Club Dr.,Rocklin,CA,95765,(916)624-4101,6,38.81,-121.2646,472,40900,21,6061,1,1,1,0.0,6.0,,-1.0,-1.0,-1.0,0,-1.0,-1.0,-1.0,23.0,104.0,4.0,108.0,1,0,0,0,505.0,06006,06001,60001308256,604,92.0,-1.0
2021,060001308257,0608257,Granite Oaks Middle,0600013,Rocklin Unified,CA-3175085,3175085-6116057,2600 Wyckford Dr.,Rocklin,CA,95765,2600 Wyckford Dr.,Rocklin,CA,95765,(916)315-9009,6,38.8209,-121.2525,472,40900,21,6061,2,1,1,7.0,8.0,,-1.0,-1.0,-1.0,0,-1.0,-1.0,-1.0,48.0,82.0,2.0,84.0,0,0,1,0,967.0,06006,06001,60001308257,604,75.0,-1.0
2021,060001308553,0608553,Spring View Middle,0600013,Rocklin Unified,CA-3175085,3175085-6100903,5040 Fifth St.,Rocklin,CA,95677,5040 Fifth St.,Rocklin,CA,95677,(916)624-3381,6,38.7953,-121.2409,472,40900,21,6061,2,1,1,7.0,8.0,,-1.0,-1.0,-1.0,0,-1.0,-1.0,-1.0,41.0,159.0,9.0,168.0,0,0,1,0,792.0,06006,06001,60001308553,604,139.0,-1.0
2021,060001308763,0608763,Valley View Elementary,0600013,Rocklin Unified,CA-3175085,3175085-6118517,3000 Crest Dr.,Rocklin,CA,95765,3000 Crest Dr.,Rocklin,CA,95765,(916)435-4844,6,38.8146,-121.2408,472,40900,21,6061,1,1,1,0.0,6.0,,-1.0,-1.0,-1.0,0,-1.0,-1.0,-1.0,26.0,49.0,3.0,52.0,1,0,0,0,627.0,06006,06001,60001308763,604,45.0,-1.0
2021,060001308764,0608764,Sierra Elementary,0600013,Rocklin Unified,CA-3175085,3175085-6118533,6811 Camborne Way,Rocklin,CA,95677,6811 Camborne Way,Rocklin,CA,95677,(916)788-7141,6,38.7723,-121.2172,472,40900,21,6061,1,1,1,0.0,6.0,,-1.0,-1.0,-1.0,0,-1.0,-1.0,-1.0,19.0,55.0,4.0,59.0,1,0,0,0,478.0,06006,06001,60001308764,604,48.0,-1.0
2021,060001309069,0609069,Parker Whitney Elementary,0600013,Rocklin Unified,CA-3175085,3175085-6031207,5145 Topaz Ave.,Rocklin,CA,95677,5145 Topaz Ave.,Rocklin,CA,95677,(916)624-2491,6,38.7934,-121.2542,472,40900,21,6061,1,1,1,0.0,6.0,,-1.0,-1.0,-1.0,0,-1.0,-1.0,-1.0,19.0,88.0,5.0,93.0,1,0,0,0,386.0,06006,06001,60001309069,604,72.0,-1.0
2021,060001309070,0609070,Rocklin Elementary,0600013,Rocklin Unified,CA-3175085,3175085-6031215,5025 Meyers St.,Rocklin,CA,95677,5025 Meyers St.,Rocklin,CA,95677,(916)624-3311,6,38.7915,-121.2284,472,40900,21,6061,1,1,1,0.0,6.0,,-1.0,-1.0,-1.0,0,-1.0,-1.0,-1.0,25.0,164.0,9.0,173.0,1,0,0,0,579.0,06006,06001,60001309070,604,144.0,-1.0
2021,060001310270,0610270,Cobblestone Elementary,0600013,Rocklin Unified,CA-3175085,3175085-6109870,5740 Cobblestone Dr.,Rocklin,CA,95765,5740 Cobblestone Dr.,Rocklin,CA,95765,(916)632-0140,6,38.8021,-121.2648,472,40900,21,6061,1,1,1,0.0,6.0,,-1.0,-1.0,-1.0,0,-1.0,-1.0,-1.0,19.0,93.0,3.0,96.0,1,0,0,0,412.0,06006,06001,60001310270,604,81.0,-1.0
2021,060001310575,0610575,Rock Creek Elementary,0600013,Rocklin Unified,CA-3175085,3175085-6119853,2140 Collet Quarry Dr.,Rocklin,CA,95765,2140 Collet Quarry Dr.,Rocklin,CA,95765,(916)788-4282,6,38.7983,-121.2798,472,40900,21,6061,1,1,1,0.0,6.0,,-1.0,-1.0,-1.0,0,-1.0,-1.0,-1.0,20.0,84.0,5.0,89.0,1,0,0,0,456.0,06006,06001,60001310575,604,79.0,-1.0
2021,060001311009,0611009,Ruhkala Elementary,0600013,Rocklin Unified,CA-3175085,3175085-0108050,6530 Turnstone Way,Rocklin,CA,95765,6530 Turnstone Way,Rocklin,CA,95765,(916)632-6560,6,38.80289,-121.287302,472,40900,21,6061,1,1,1,0.0,6.0,,-1.0,-1.0,-1.0,0,-1.0,-1.0,-1.0,13.0,44.0,2.0,46.0,1,0,0,0,313.0,06006,06001,60001311009,604,40.0,-1.0
2021,060001311010,0611010,Whitney High,0600013,Rocklin Unified,CA-3175085,3175085-0108084,701 Wildcat Blvd.,Rocklin,CA,95765,701 Wildcat Blvd.,Rocklin,CA,95765,(916)632-6500,6,38.8364,-121.2894,472,40900,21,6061,3,1,1,9.0,12.0,,-1.0,-1.0,-1.0,0,-1.0,-1.0,-1.0,89.0,255.0,15.0,270.0,0,1,0,0,2040.0,06006,06001,60001311010,604,221.0,-1.0
2021,060001312558,0612558,Sunset Ranch Elementary,0600013,Rocklin Unified,CA-3175085,3175085-0121244,2500 Bridlewood Dr.,Rocklin,CA,95765,2500 Bridlewood Dr.,Rocklin,CA,95765,(916)624-2048,6,38.828479,-121.274654,472,40900,21,6061,1,1,1,0.0,6.0,,-1.0,-1.0,-1.0,0,-1.0,-1.0,-1.0,28.0,51.0,6.0,57.0,1,0,0,0,636.0,06006,06001,60001312558,604,42.0,-1.0
2021,060001314465,0614465,Rocklin Alternative Education Center,0600013,Rocklin Unified,CA-3175085,3175085-3130218,3250 Victory Dr.,Rocklin,CA,95765,3250 Victory Dr.,Rocklin,CA,95765,(916)632-3195,6,38.815698,-121.254325,472,40900,21,6061,4,4,1,0.0,12.0,,-1.0,-1.0,-1.0,0,-1.0,-1.0,-1.0,4.0,25.0,0.0,25.0,1,1,1,0,97.0,06006,06001,60001314465,604,22.0,-1.0
2021,060001314609,0614609,Quarry Trail Elementary,0600013,Rocklin Unified,CA-3175085,3175085-0141259,810 Lazy Trail Dr.,Rocklin,CA,95765,810 Lazy Trail Dr.,Rocklin,CA,95765,(916)630-3300,6,38.831403,-121.263384,472,40900,21,6061,-1,1,7,,,,,,,0,,,,,,,,0,1,0,1,,06006,06001,60001314609,604,,
2021,060001403904,0603904,Topaz Preparatory Academy,0600014,Hesperia Unified,CA-3675044,3675044-6111751,14110 Beech St.,Hesperia,CA,92345,14110 Beech St.,Hesperia,CA,92345,(760)244-4622,6,34.4332,-117.3541,348,40140,21,6071,1,1,1,0.0,6.0,,-1.0,-1.0,-1.0,0,-1.0,-1.0,-1.0,28.0,440.0,30.0,470.0,1,0,0,0,696.0,06033,06021,60001403904,608,356.0,-1.0
2021,060001405093,0605093,Sultana High,0600014,Hesperia Unified,CA-3675044,3675044-3630746,17311 Sultana Ave.,Hesperia,CA,92345,17311 Sultana Ave.,Hesperia,CA,92345,(760)947-6777,6,34.4104,-117.2867,348,40140,21,6071,3,1,1,9.0,12.0,,-1.0,-1.0,-1.0,0,-1.0,-1.0,-1.0,86.0,1129.0,49.0,1178.0,0,1,0,0,2078.0,06033,06021,60001405093,608,960.0,-1.0
2021,060001407287,0607287,Shadow Ridge,0600014,Hesperia Unified,CA-3675044,3675044-3630811,15776 Main St. Ste. 5,Hesperia,CA,92345,15776 Main St. Ste. 5,Hesperia,CA,92345,(760)949-8267,6,34.424788,-117.31918,348,40140,21,6071,4,4,1,0.0,12.0,,-1.0,-1.0,-1.0,0,-1.0,-1.0,-1.0,21.0,448.0,12.0,460.0,1,1,1,0,673.0,06033,06021,60001407287,608,400.0,-1.0
2021,060001407295,0607295,Mesquite Trails Elementary,0600014,Hesperia Unified,CA-3675044,3675044-6114680,13884 Mesquite St.,Hesperia,CA,92344,13884 Mesquite St.,Hesperia,CA,92344,(760)949-3149,6,34.398323,-117.360843,348,40140,21,6071,1,1,1,0.0,6.0,,-1.0,-1.0,-1.0,0,-1.0,-1.0,-1.0,33.0,405.0,42.0,447.0,1,0,0,0,840.0,06033,06021,60001407295,608,339.0,-1.0
2021,060001408296,0608296,Hesperia Community Day,0600014,Hesperia Unified,CA-3675044,3675044-3630944,16527 1/2 Lemon St.,Hesperia,CA,92345,16527 1/2 Lemon St.,Hesperia,CA,92345,(760)244-1771,6,34.443814,-117.301229,348,40140,21,6071,3,4,1,7.0,12.0,,-1.0,-1.0,-1.0,0,-1.0,-1.0,-1.0,1.0,7.0,0.0,7.0,0,1,1,0,11.0,06033,06021,60001408296,608,7.0,-1.0
2021,060001409072,0609072,Hesperia High,0600014,Hesperia Unified,CA-3675044,3675044-3630407,9898 Maple Ave.,Hesperia,CA,92345,9898 Maple Ave.,Hesperia,CA,92345,(760)244-9898,6,34.4301,-117.3477,348,40140,21,6071,3,1,1,9.0,12.0,,-1.0,-1.0,-1.0,0,-1.0,-1.0,-1.0,96.0,1476.0,99.0,1575.0,0,1,0,0,2223.0,06033,06021,60001409072,608,1164.0,-1.0
2021,060001409073,0609073,Mojave High,0600014,Hesperia Unified,CA-3675044,3675044-3630472,16633 Lemon St.,Hesperia,CA,92345,16633 Lemon St.,Hesperia,CA,92345,(760)948-3999,6,34.444602,-117.301624,348,40140,21,6071,3,4,1,9.0,12.0,,-1.0,-1.0,-1.0,0,-1.0,-1.0,-1.0,18.0,199.0,5.0,204.0,0,1,0,0,272.0,06033,06021,60001409073,608,158.0,-1.0
2021,060001409074,0609074,Joshua Circle Elementary,0600014,Hesperia Unified,CA-3675044,3675044-6035943,10140 8th Ave.,Hesperia,CA,92345,10140 8th Ave.,Hesperia,CA,92345,(760)244-6133,6,34.43488,-117.316527,348,40140,21,6071,1,1,1,0.0,6.0,,-1.0,-1.0,-1.0,0,-1.0,-1.0,-1.0,27.0,520.0,32.0,552.0,1,0,0,0,648.0,06033,06021,60001409074,608,415.0,-1.0
2021,060001409075,0609075,Juniper Elementary,0600014,Hesperia Unified,CA-3675044,3675044-6035950,9400 I Ave.,Hesperia,CA,92345,9400 I Ave.,Hesperia,CA,92345,(760)244-6161,6,34.4221,-117.2819,348,40140,21,6071,1,1,1,0.0,6.0,,-1.0,-1.0,-1.0,0,-1.0,-1.0,-1.0,29.0,498.0,46.0,544.0,1,0,0,0,676.0,06033,06021,60001409075,608,390.0,-1.0
2021,060001409076,0609076,Eucalyptus Elementary,0600014,Hesperia Unified,CA-3675044,3675044-6035968,11224 10th Ave.,Hesperia,CA,92345,11224 10th Ave.,Hesperia,CA,92345,(760)949-0815,6,34.454719,-117.318821,348,40140,21,6071,1,1,1,0.0,6.0,,-1.0,-1.0,-1.0,0,-1.0,-1.0,-1.0,28.0,554.0,30.0,584.0,1,0,0,0,698.0,06033,06021,60001409076,608,462.0,-1.0
2021,060001409077,0609077,Hesperia Junior High,0600014,Hesperia Unified,CA-3675044,3675044-6059547,10275 Cypress Ave.,Hesperia,CA,92345,10275 Cypress Ave.,Hesperia,CA,92345,(760)244-9386,6,34.436245,-117.325268,348,40140,21,6071,2,1,1,7.0,8.0,,-1.0,-1.0,-1.0,0,-1.0,-1.0,-1.0,49.0,752.0,52.0,804.0,0,0,1,0,1116.0,06033,06021,60001409077,608,634.0,-1.0
2021,060001409078,0609078,Mesa Grande Elementary,0600014,Hesperia Unified,CA-3675044,3675044-6089643,9172 3rd Ave.,Hesperia,CA,92345,9172 3rd Ave.,Hesperia,CA,92345,(760)244-3709,6,34.418268,-117.308349,348,40140,21,6071,1,1,1,0.0,6.0,,-1.0,-1.0,-1.0,0,-1.0,-1.0,-1.0,28.0,440.0,20.0,460.0,1,0,0,0,595.0,06033,06021,60001409078,608,339.0,-1.0
2021,060001409079,0609079,Kingston Elementary,0600014,Hesperia Unified,CA-3675044,3675044-6100937,7473 Kingston Ave.,Hesperia,CA,92345,7473 Kingston Ave.,Hesperia,CA,92345,(760)244-8869,6,34.3868,-117.2741,348,40140,21,6071,1,1,1,0.0,6.0,,-1.0,-1.0,-1.0,0,-1.0,-1.0,-1.0,30.0,479.0,53.0,532.0,1,0,0,0,741.0,06033,06021,60001409079,608,359.0,-1.0
2021,060001409080,0609080,Maple Elementary,0600014,Hesperia Unified,CA-3675044,3675044-6103337,10616 Maple St.,Hesperia,CA,92345,10616 Maple St.,Hesperia,CA,92345,(760)244-3096,6,34.4431,-117.3479,348,40140,21,6071,1,1,1,0.0,6.0,,-1.0,-1.0,-1.0,0,-1.0,-1.0,-1.0,35.0,602.0,47.0,649.0,1,0,0,0,868.0,06033,06021,60001409080,608,503.0,-1.0
2021,060001409081,0609081,Cottonwood Elementary,0600014,Hesperia Unified,CA-3675044,3675044-6105498,8850 Cottonwood Ave.,Hesperia,CA,92345,8850 Cottonwood Ave.,Hesperia,CA,92345,(760)949-1390,6,34.411484,-117.339014,348,40140,21,6071,1,1,1,0.0,6.0,,-1.0,-1.0,-1.0,0,-1.0,-1.0,-1.0,37.0,586.0,67.0,653.0,1,0,0,0,851.0,06033,06021,60001409081,608,459.0,-1.0
2021,060001409082,0609082,Lime Street Elementary,0600014,Hesperia Unified,CA-3675044,3675044-6106454,16852 Lime St.,Hesperia,CA,92345,16852 Lime St.,Hesperia,CA,92345,(760)244-0512,6,34.4054,-117.2946,348,40140,21,6071,1,1,1,0.0,6.0,,-1.0,-1.0,-1.0,0,-1.0,-1.0,-1.0,35.0,673.0,18.0,691.0,1,0,0,0,874.0,06033,06021,60001409082,608,561.0,-1.0
2021,060001409476,0609476,Hollyvale Elementary,0600014,Hesperia Unified,CA-3675044,3675044-6108112,11645 Hollyvale Ave.,Victorville,CA,92392,11645 Hollyvale Ave.,Victorville,CA,92392,(760)947-3484,6,34.4621,-117.3855,348,40140,21,6071,1,1,1,0.0,6.0,,-1.0,-1.0,-1.0,0,-1.0,-1.0,-1.0,13.0,246.0,25.0,271.0,1,0,0,0,371.0,06033,06021,60001409476,608,191.0,-1.0
2021,060001409477,0609477,Carmel Elementary,0600014,Hesperia Unified,CA-3675044,3675044-6108120,9321 Glendale Ave.,Hesperia,CA,92345,9321 Glendale Ave.,Hesperia,CA,92345,(760)947-3188,6,34.4216,-117.2411,348,40140,41,6071,1,1,1,0.0,6.0,,-1.0,-1.0,-1.0,0,-1.0,-1.0,-1.0,30.0,580.0,17.0,597.0,1,0,0,0,796.0,06033,06021,60001409477,608,448.0,-1.0
2021,060001409676,0609676,Ranchero Middle,0600014,Hesperia Unified,CA-3675044,3675044-6109359,17607 Ranchero Rd.,Hesperia,CA,92345,17607 Ranchero Rd.,Hesperia,CA,92345,(760)948-0175,6,34.3826,-117.2783,348,40140,21,6071,2,1,1,7.0,8.0,,-1.0,-1.0,-1.0,0,-1.0,-1.0,-1.0,51.0,684.0,53.0,737.0,0,0,1,0,1118.0,06033,06021,60001409676,608,549.0,-1.0
2021,060001411119,0611119,Cypress School of the Arts,0600014,Hesperia Unified,CA-3675044,3675044-0107805,10365 Cypress Ave.,Hesperia,CA,92345,10365 Cypress Ave.,Hesperia,CA,92345,(760)949-2596,6,34.439201,-117.324072,348,40140,21,6071,1,1,1,0.0,6.0,,-1.0,-1.0,-1.0,0,-1.0,-1.0,-1.0,31.0,445.0,35.0,480.0,1,0,0,0,748.0,06033,06021,60001411119,608,371.0,-1.0
2021,060001412100,0612100,Canyon Ridge High,0600014,Hesperia Unified,CA-3675044,3675044-0115444,12850 Muscatel Ave.,Hesperia,CA,92344,12850 Muscatel Ave.,Hesperia,CA,92344,(760)244-6530,6,34.4128,-117.3827,348,40140,41,6071,3,4,1,9.0,12.0,,-1.0,-1.0,-1.0,0,-1.0,-1.0,-1.0,12.0,140.0,5.0,145.0,0,1,0,0,226.0,06033,06021,60001412100,608,114.0,-1.0
2021,060001412103,0612103,Cedar Middle,0600014,Hesperia Unified,CA-3675044,3675044-0114108,13565 Cedar St.,Hesperia,CA,92344,13565 Cedar St.,Hesperia,CA,92344,(760)244-6093,6,34.4043,-117.3659,348,40140,21,6071,2,1,1,7.0,8.0,,-1.0,-1.0,-1.0,0,-1.0,-1.0,-1.0,45.0,572.0,67.0,639.0,0,0,1,0,1018.0,06033,06021,60001412103,608,422.0,-1.0
2021,060001412171,0612171,Mission Crest Elementary,0600014,Hesperia Unified,CA-3675044,3675044-0114090,13065 Muscatel St.,Hesperia,CA,92344,13065 Muscatel St.,Hesperia,CA,92344,(760)949-8265,6,34.4115,-117.3783,348,40140,21,6071,1,1,1,0.0,6.0,,-1.0,-1.0,-1.0,0,-1.0,-1.0,-1.0,35.0,548.0,41.0,589.0,1,0,0,0,856.0,06033,06021,60001412171,608,384.0,-1.0
2021,060001412415,0612415,Krystal School of Science Math & Technology,0600014,Hesperia Unified,CA-3675044,3675044-0119107,17160 Krystal Dr.,Hesperia,CA,92345,17160 Krystal Dr.,Hesperia,CA,92345,(760)948-3611,6,34.3795,-117.2883,348,40140,41,6071,1,1,1,0.0,6.0,,-1.0,-1.0,-1.0,0,-1.0,-1.0,-1.0,34.0,295.0,19.0,314.0,1,0,0,0,858.0,06033,06021,60001412415,608,247.0,-1.0
2021,060001412417,0612417,Oak Hills High,0600014,Hesperia Unified,CA-3675044,3675044-0119115,7625 Cataba Rd.,Oak Hills,CA,92344,7625 Cataba Rd.,Oak Hills,CA,92344,(760)244-2283,6,34.389,-117.3841,348,40140,21,6071,3,1,1,9.0,12.0,,-1.0,-1.0,-1.0,0,-1.0,-1.0,-1.0,106.0,1161.0,99.0,1260.0,0,1,0,0,2458.0,06033,06021,60001412417,608,937.0,-1.0
2021,060001503907,0603907,Mountain View High,0600015,Lucerne Valley Unified,CA-3675051,3675051-3630696,8560 Aliento Rd.,Lucerne Valley,CA,92356,8560 Aliento Rd.,Lucerne Valley,CA,92356,(760)248-2408,6,34.41026,-116.907602,348,40140,42,6071,3,4,1,9.0,12.0,,-1.0,-1.0,-1.0,0,-1.0,-1.0,-1.0,1.0,6.0,0.0,6.0,0,1,0,0,9.0,06033,06016,60001503907,608,6.0,-1.0
2021,060001509083,0609083,Lucerne Valley Elementary,0600015,Lucerne Valley Unified,CA-3675051,3675051-6035976,8560 Aliento Rd.,Lucerne Valley,CA,92356,10788 Barstow Rd.,Lucerne Valley,CA,92356,(760)248-7659,6,34.4483,-116.946767,348,40140,42,6071,1,1,1,0.0,6.0,,-1.0,-1.0,-1.0,0,-1.0,-1.0,-1.0,29.0,476.0,48.0,524.0,1,0,0,0,587.0,06033,06016,60001509083,608,355.0,-1.0
2021,060001509084,0609084,Lucerne Valley Middle,0600015,Lucerne Valley Unified,CA-3675051,3675051-6106330,8560 Aliento Rd.,Lucerne Valley,CA,92356,33233 Rabbit Springs Rd.,Lucerne Valley,CA,92356,(760)248-2124,6,34.457682,-116.938836,348,40140,42,6071,2,1,1,7.0,8.0,,-1.0,-1.0,-1.0,0,-1.0,-1.0,-1.0,10.0,123.0,11.0,134.0,0,0,1,0,142.0,06033,06016,60001509084,608,85.0,-1.0
2021,060001510305,0610305,Lucerne Valley High,0600015,Lucerne Valley Unified,CA-3675051,3675051-3630563,8560 Aliento Rd.,Lucerne Valley,CA,92356,33233 Rabbit Springs Rd.,Lucerne Valley,CA,92356,(760)248-2124,6,34.457682,-116.938836,348,40140,42,6071,3,1,1,9.0,12.0,,-1.0,-1.0,-1.0,0,-1.0,-1.0,-1.0,16.0,193.0,25.0,218.0,0,1,0,0,242.0,06033,06016,60001510305,608,146.0,-1.0
2021,060001609085,0609085,Hillside High,0600016,Upland Unified,CA-3675069,3675069-3630456,1558 W. Ninth St.,Upland,CA,91786,1558 W. Ninth St.,Upland,CA,91786,(909)949-8400,6,34.095762,-117.680049,348,40140,21,6071,3,4,1,10.0,12.0,,-1.0,-1.0,-1.0,0,-1.0,-1.0,-1.0,11.0,94.0,22.0,116.0,0,1,0,0,135.0,06041,06025,60001609085,631,66.0,-1.0
2021,060001609086,0609086,Upland High,0600016,Upland Unified,CA-3675069,3675069-3637584,565 W. 11th St.,Upland,CA,91786,565 W. 11th St.,Upland,CA,91786,(909)949-7880,6,34.1045,-117.6581,348,40140,21,6071,3,1,1,9.0,12.0,,-1.0,-1.0,-1.0,0,-1.0,-1.0,-1.0,130.0,1604.0,564.0,2168.0,0,1,0,0,3251.0,06041,06025,60001609086,631,1024.0,-1.0
2021,060001609087,0609087,Baldy View Elementary,0600016,Upland Unified,CA-3675069,3675069-6037204,979 W. 11th St.,Upland,CA,91786,979 W. 11th St.,Upland,CA,91786,(909)982-2564,6,34.104,-117.6654,348,40140,21,6071,1,1,1,0.0,6.0,,-1.0,-1.0,-1.0,0,-1.0,-1.0,-1.0,21.0,377.0,70.0,447.0,1,0,0,0,539.0,06041,06025,60001609087,631,290.0,-1.0
2021,060001609088,0609088,Cabrillo Elementary,0600016,Upland Unified,CA-3675069,3675069-6037212,1562 W. 11th St.,Upland,CA,91786,1562 W. 11th St.,Upland,CA,91786,(909)985-2619,6,34.1025,-117.6799,348,40140,21,6071,1,1,1,0.0,6.0,,-1.0,-1.0,-1.0,0,-1.0,-1.0,-1.0,22.0,380.0,92.0,472.0,1,0,0,0,547.0,06041,06025,60001609088,631,283.0,-1.0
2021,060001609089,0609089,Citrus Elementary,0600016,Upland Unified,CA-3675069,3675069-6037220,925 W. Seventh St.,Upland,CA,91786,925 W. Seventh St.,Upland,CA,91786,(909)949-7731,6,34.0896,-117.664,348,40140,21,6071,1,1,1,0.0,6.0,,-1.0,-1.0,-1.0,0,-1.0,-1.0,-1.0,23.0,405.0,72.0,477.0,1,0,0,0,579.0,06041,06025,60001609089,631,285.0,-1.0
2021,060001609090,0609090,Foothill Knolls Academy of Innovation,0600016,Upland Unified,CA-3675069,3675069-6037238,1245 Veterans Ct.,Upland,CA,91786,1245 Veterans Ct.,Upland,CA,91786,(909)949-7740,6,34.1096,-117.6352,348,40140,21,6071,1,1,1,0.0,8.0,,-1.0,-1.0,-1.0,0,-1.0,-1.0,-1.0,24.0,289.0,80.0,369.0,1,0,1,0,584.0,06041,06025,60001609090,631,198.0,-1.0
2021,060001609091,0609091,Magnolia Elementary,0600016,Upland Unified,CA-3675069,3675069-6037246,465 W. 15th St.,Upland,CA,91786,465 W. 15th St.,Upland,CA,91786,(909)949-7750,6,34.1188,-117.6569,348,40140,21,6071,1,1,1,0.0,6.0,,-1.0,-1.0,-1.0,0,-1.0,-1.0,-1.0,22.0,129.0,72.0,201.0,1,0,0,0,506.0,06041,06025,60001609091,627,79.0,-1.0
2021,060001609092,0609092,Pioneer Junior High,0600016,Upland Unified,CA-3675069,3675069-6037253,245 W. 18th St.,Upland,CA,91784,245 W. 18th St.,Upland,CA,91784,(909)949-7770,6,34.1295,-117.6548,348,40140,21,6071,2,1,1,7.0,8.0,,-1.0,-1.0,-1.0,0,-1.0,-1.0,-1.0,33.0,216.0,109.0,325.0,0,0,1,0,709.0,06041,06025,60001609092,627,139.0,-1.0
2021,060001609093,0609093,Sierra Vista Elementary,0600016,Upland Unified,CA-3675069,3675069-6037261,253 E. 14th St.,Upland,CA,91786,253 E. 14th St.,Upland,CA,91786,(909)949-7780,6,34.1153,-117.6478,348,40140,21,6071,1,1,1,0.0,6.0,,-1.0,-1.0,-1.0,0,-1.0,-1.0,-1.0,14.0,214.0,79.0,293.0,1,0,0,0,407.0,06041,06025,60001609093,627,144.0,-1.0
2021,060001609094,0609094,Sycamore Elementary,0600016,Upland Unified,CA-3675069,3675069-6037279,1075 W. 13th St.,Upland,CA,91786,1075 W. 13th St.,Upland,CA,91786,(909)982-0347,6,34.1113,-117.6669,348,40140,21,6071,1,1,1,0.0,6.0,,-1.0,-1.0,-1.0,0,-1.0,-1.0,-1.0,16.0,219.0,82.0,301.0,1,0,0,0,434.0,06041,06025,60001609094,631,162.0,-1.0
2021,060001609095,0609095,Upland Elementary,0600016,Upland Unified,CA-3675069,3675069-6037287,601 N. Fifth Ave.,Upland,CA,91786,601 N. Fifth Ave.,Upland,CA,91786,(909)949-7800,6,34.100994,-117.64478,348,40140,21,6071,1,1,1,0.0,6.0,,-1.0,-1.0,-1.0,0,-1.0,-1.0,-1.0,19.0,313.0,45.0,358.0,1,0,0,0,434.0,06041,06025,60001609095,631,246.0,-1.0
2021,060001609096,0609096,Upland Junior High,0600016,Upland Unified,CA-3675069,3675069-6037295,444 E. 11th St.,Upland,CA,91785,444 E. 11th St.,Upland,CA,91785,(909)949-7810,6,34.1028,-117.6451,348,40140,21,6071,2,1,1,7.0,8.0,,-1.0,-1.0,-1.0,0,-1.0,-1.0,-1.0,30.0,490.0,96.0,586.0,0,0,1,0,700.0,06041,06025,60001609096,631,348.0,-1.0
2021,060001609097,0609097,Valencia Elementary,0600016,Upland Unified,CA-3675069,3675069-6037311,541 W. 22nd St.,Upland,CA,91784,541 W. 22nd St.,Upland,CA,91784,(909)949-7830,6,34.144,-117.6576,348,40140,21,6071,1,1,1,0.0,6.0,,-1.0,-1.0,-1.0,0,-1.0,-1.0,-1.0,22.0,141.0,62.0,203.0,1,0,0,0,583.0,06041,06025,60001609097,627,84.0,-1.0
2021,060001609678,0609678,Pepper Tree Elementary,0600016,Upland Unified,CA-3675069,3675069-6109573,1045 W. 18th St.,Upland,CA,91784,1045 W. 18th St.,Upland,CA,91784,(909)949-9635,6,34.1297,-117.6671,348,40140,21,6071,1,1,1,0.0,6.0,,-1.0,-1.0,-1.0,0,-1.0,-1.0,-1.0,29.0,174.0,103.0,277.0,1,0,0,0,778.0,06041,06025,60001609678,627,118.0,-1.0
2021,060001614642,0614642,Upland Virtual,0600016,Upland Unified,CA-3675069,3675069-0141606,390 N Euclid Ave,Upland,CA,91786,390 N Euclid Ave,Upland,CA,91786,(909)985-1864,6,34.098227,-117.650534,348,40140,21,6071,-1,4,7,,,,,,,0,,,,,,,,0,1,0,1,,06041,06025,60001614642,631,,
2021,060001701149,0601149,Rio Vista School of Applied Learning,0600017,Apple Valley Unified,CA-3675077,3675077-6110605,13590 Havasu Rd.,Apple Valley,CA,92308,13590 Havasu Rd.,Apple Valley,CA,92308,(760)240-0280,6,34.4987,-117.2514,348,40140,21,6071,1,1,1,0.0,6.0,,-1.0,-1.0,-1.0,0,-1.0,-1.0,-1.0,39.0,449.0,166.0,615.0,1,0,0,0,975.0,06033,06021,60001701149,608,333.0,-1.0
2021,060001705167,0605167,Sycamore Rocks Elementary,0600017,Apple Valley Unified,CA-3675077,3675077-6112825,23450 S. Rd.,Apple Valley,CA,92307,23450 S. Rd.,Apple Valley,CA,92307,(760)240-3332,6,34.5522,-117.1517,348,40140,41,6071,1,1,1,0.0,6.0,,-1.0,-1.0,-1.0,0,-1.0,-1.0,-1.0,30.0,481.0,68.0,549.0,1,0,0,0,710.0,06033,06021,60001705167,608,390.0,-1.0
2021,060001708297,0608297,Granite Hills High,0600017,Apple Valley Unified,CA-3675077,3675077-3630894,22900 Esaws Rd.,Apple Valley,CA,92307,22900 Esaws Rd.,Apple Valley,CA,92307,(760)961-2290,6,34.5089,-117.1653,348,40140,41,6071,3,1,1,9.0,12.0,,-1.0,-1.0,-1.0,0,-1.0,-1.0,-1.0,74.0,1105.0,210.0,1315.0,0,1,0,0,1805.0,06033,06021,60001708297,608,923.0,-1.0
2021,060001708588,0608588,High Desert Premier Academy,0600017,Apple Valley Unified,CA-3675077,3675077-3631009,21950 Nisqually Rd.,Apple Valley,CA,92308,21950 Nisqually Rd.,Apple Valley,CA,92308,(760)240-4252,6,34.486772,-117.185136,348,40140,21,6071,4,4,1,0.0,12.0,,-1.0,-1.0,-1.0,0,-1.0,-1.0,-1.0,10.0,180.0,9.0,189.0,1,1,1,0,233.0,06033,06021,60001708588,608,160.0,-1.0
2021,060001709098,0609098,Apple Valley High,0600017,Apple Valley Unified,CA-3675077,3675077-3630423,11837 Navajo Rd.,Apple Valley,CA,92308,11837 Navajo Rd.,Apple Valley,CA,92308,(760)247-7206,6,34.4667,-117.189,348,40140,21,6071,3,1,1,9.0,12.0,,-1.0,-1.0,-1.0,0,-1.0,-1.0,-1.0,88.0,1059.0,299.0,1358.0,0,1,0,0,2178.0,06033,06021,60001709098,608,815.0,-1.0
2021,060001709100,0609100,Mariana Academy,0600017,Apple Valley Unified,CA-3675077,3675077-6035240,10601 Manhasset Rd.,Apple Valley,CA,92308,10601 Manhasset Rd.,Apple Valley,CA,92308,(760)247-7258,6,34.4442,-117.1872,348,40140,21,6071,1,1,1,0.0,8.0,,-1.0,-1.0,-1.0,0,-1.0,-1.0,-1.0,28.0,492.0,82.0,574.0,1,0,1,0,673.0,06033,06021,60001709100,608,437.0,-1.0
2021,060001709101,0609101,Rancho Verde Elementary,0600017,Apple Valley Unified,CA-3675077,3675077-6035257,14334 Pioneer Rd.,Apple Valley,CA,92307,14334 Pioneer Rd.,Apple Valley,CA,92307,(760)247-2663,6,34.5122,-117.1806,348,40140,21,6071,1,1,1,0.0,6.0,,-1.0,-1.0,-1.0,0,-1.0,-1.0,-1.0,29.0,486.0,74.0,560.0,1,0,0,0,676.0,06033,06021,60001709101,608,425.0,-1.0
2021,060001709102,0609102,Yucca Loma Elementary,0600017,Apple Valley Unified,CA-3675077,3675077-6035265,21351 Yucca Loma Rd.,Apple Valley,CA,92307,21351 Yucca Loma Rd.,Apple Valley,CA,92307,(760)247-2623,6,34.4998,-117.1974,348,40140,21,6071,1,1,1,0.0,6.0,,-1.0,-1.0,-1.0,0,-1.0,-1.0,-1.0,26.0,515.0,38.0,553.0,1,0,0,0,615.0,06033,06021,60001709102,608,438.0,-1.0
2021,060001709103,0609103,Desert Knolls Elementary,0600017,Apple Valley Unified,CA-3675077,3675077-6037337,18213 Symeron Dr.,Apple Valley,CA,92307,18213 Symeron Dr.,Apple Valley,CA,92307,(760)242-3441,6,34.5286,-117.2676,348,40140,21,6071,1,1,1,0.0,6.0,,-1.0,-1.0,-1.0,0,-1.0,-1.0,-1.0,30.0,527.0,55.0,582.0,1,0,0,0,778.0,06033,06021,60001709103,608,444.0,-1.0
2021,060001709272,0609272,Sandia Elementary,0600017,Apple Valley Unified,CA-3675077,3675077-6107346,21331 Sandia Rd.,Apple Valley,CA,92308,21331 Sandia Rd.,Apple Valley,CA,92308,(760)240-5125,6,34.4635,-117.1976,348,40140,21,6071,1,1,1,0.0,8.0,,-1.0,-1.0,-1.0,0,-1.0,-1.0,-1.0,36.0,643.0,76.0,719.0,1,0,1,0,828.0,06033,06021,60001709272,608,547.0,-1.0
2021,060001711122,0611122,Vanguard Preparatory,0600017,Apple Valley Unified,CA-3675077,3675077-0108423,12951 Mesquite Rd.,Apple Valley,CA,92308,12951 Mesquite Rd.,Apple Valley,CA,92308,(760)961-1066,6,34.4873,-117.1634,348,40140,21,6071,1,1,1,0.0,8.0,,-1.0,-1.0,-1.0,0,-1.0,-1.0,-1.0,45.0,591.0,213.0,804.0,1,0,1,0,1151.0,06033,06021,60001711122,608,493.0,-1.0
2021,060001711747,0611747,Sitting Bull Academy,0600017,Apple Valley Unified,CA-3675077,3675077-0110866,19445 Sitting Bull Rd.,Apple Valley,CA,92308,19445 Sitting Bull Rd.,Apple Valley,CA,92308,(760)961-8479,6,34.4848,-117.2375,348,40140,21,6071,1,1,1,0.0,8.0,,-1.0,-1.0,-1.0,0,-1.0,-1.0,-1.0,67.0,731.0,171.0,902.0,1,0,1,0,1538.0,06033,06021,60001711747,608,568.0,-1.0
2021,060001712663,0612663,Phoenix Academy,0600017,Apple Valley Unified,CA-3675077,3675077-0122945,20700 Thunderbird Rd.,Apple Valley,CA,92307,20700 Thunderbird Rd.,Apple Valley,CA,92307,(760)242-7011,6,34.532017,-117.2132,348,40140,21,6071,1,1,1,0.0,8.0,,-1.0,-1.0,-1.0,0,-1.0,-1.0,-1.0,52.0,886.0,60.0,946.0,1,0,1,0,1121.0,06033,06021,60001712663,608,796.0,-1.0
2021,060001713290,0613290,Apple Valley Unified Preschool Special Education,0600017,Apple Valley Unified,CA-3675077,3675077-0122952,12555 Navajo Rd.,Apple Valley,CA,92308,12555 Navajo Rd.,Apple Valley,CA,92308,(760)247-2052,6,34.479834,-117.189595,348,40140,21,6071,-1,1,1,,,,-1.0,-1.0,-1.0,0,-1.0,-1.0,-1.0,,,,,0,1,0,1,,06033,06021,60001713290,608,,-1.0
2021,060001714643,0614643,Apple Valley Virtual Academy,0600017,Apple Valley Unified,CA-3675077,3675077-0141457,12555 Navajo Rd.,Apple Valley,CA,92308,12555 Navajo Rd.,Apple Valley,CA,92308,(760)247-8001,6,34.479834,-117.189595,348,40140,21,6071,-1,4,7,,,,,,,0,,,,,,,,0,1,0,1,,06033,06021,60001714643,608,,
2021,060001809106,0609106,Valley High,0600018,Mountain Valley Unified,CA-5375028,5375028-5330022,PO Box 339,Hayfork,CA,96041,6930 State Hwy. 3,Hayfork,CA,96041,(530)628-5294,6,40.553344,-123.186166,-2,-2,43,6105,3,4,1,9.0,12.0,,-1.0,-1.0,-1.0,0,-1.0,-1.0,-1.0,1.0,,,,0,1,0,0,4.0,06002,06002,60001809106,602,,-1.0
2021,060001809107,0609107,Hayfork High,0600018,Mountain Valley Unified,CA-5375028,5375028-5337407,PO Box 10,Hayfork,CA,96041,231 Oak St.,Hayfork,CA,96041,(530)628-5261,6,40.551092,-123.171146,-2,-2,43,6105,3,1,1,9.0,12.0,,-1.0,-1.0,-1.0,0,-1.0,-1.0,-1.0,6.0,71.0,4.0,75.0,0,1,0,0,84.0,06002,06002,60001809107,602,43.0,-1.0
2021,060001809108,0609108,Hayfork Elementary,0600018,Mountain Valley Unified,CA-5375028,5375028-6053730,PO Box 70,Hayfork,CA,96041,6930 State Highway 3,Hayfork,CA,96041,(530)628-5294,6,40.553344,-123.186166,-2,-2,43,6105,1,1,1,0.0,8.0,,-1.0,-1.0,-1.0,0,-1.0,-1.0,-1.0,12.0,159.0,15.0,174.0,1,0,1,0,216.0,06002,06002,60001809108,602,112.0,-1.0
2021,060001906929,0606929,Dublin Elementary,0600019,Dublin Unified,CA-0175093,0175093-6001374,7997 Vomac Rd.,Dublin,CA,94568,7997 Vomac Rd.,Dublin,CA,94568,(925)833-1204,6,37.714587,-121.936063,488,41860,21,6001,1,1,1,0.0,5.0,,-1.0,-1.0,-1.0,0,-1.0,-1.0,-1.0,30.0,64.0,0.0,64.0,1,0,0,0,791.0,06016,06007,60001906929,615,62.0,-1.0
2021,060001908443,0608443,James Dougherty Elementary,0600019,Dublin Unified,CA-0175093,0175093-6118038,5301 Hibernia Dr.,Dublin,CA,94568,5301 Hibernia Dr.,Dublin,CA,94568,(925)803-4444,6,37.709946,-121.883879,488,41860,21,6001,1,1,1,0.0,5.0,,-1.0,-1.0,-1.0,0,-1.0,-1.0,-1.0,53.0,69.0,0.0,69.0,1,0,0,0,1187.0,06016,06007,60001908443,615,69.0,-1.0
2021,060001909273,0609273,Dublin High,0600019,Dublin Unified,CA-0175093,0175093-0132704,8151 Village Pkwy.,Dublin,CA,94568,8151 Village Pkwy.,Dublin,CA,94568,(925)833-3300,6,37.719573,-121.925184,488,41860,21,6001,3,1,1,9.0,12.0,,-1.0,-1.0,-1.0,0,-1.0,-1.0,-1.0,137.0,281.0,0.0,281.0,0,1,0,0,3370.0,06016,06007,60001909273,615,274.0,-1.0
2021,060001909274,0609274,Valley High (Continuation),0600019,Dublin Unified,CA-0175093,0175093-0138453,8151 Village Pkwy.,Dublin,CA,94568,8151 Village Pkwy.,Dublin,CA,94568,(925)829-4322,6,37.719573,-121.925184,488,41860,21,6001,3,4,1,9.0,12.0,,-1.0,-1.0,-1.0,0,-1.0,-1.0,-1.0,4.0,22.0,0.0,22.0,0,1,0,0,49.0,06016,06007,60001909274,615,21.0,-1.0
2021,060001909275,0609275,Frederiksen Elementary,0600019,Dublin Unified,CA-0175093,0175093-6001390,7243 Tamarack Dr.,Dublin,CA,94568,7243 Tamarack Dr.,Dublin,CA,94568,(925)828-1037,6,37.71523,-121.922957,488,41860,21,6001,1,1,1,0.0,5.0,,-1.0,-1.0,-1.0,0,-1.0,-1.0,-1.0,27.0,118.0,0.0,118.0,1,0,0,0,669.0,06016,06007,60001909275,615,118.0,-1.0
2021,060001909276,0609276,Murray Elementary,0600019,Dublin Unified,CA-0175093,0175093-6001424,8435 Davona Dr.,Dublin,CA,94568,8435 Davona Dr.,Dublin,CA,94568,(925)828-2568,6,37.721835,-121.932569,488,41860,21,6001,1,1,1,0.0,5.0,,-1.0,-1.0,-1.0,0,-1.0,-1.0,-1.0,26.0,97.0,0.0,97.0,1,0,0,0,580.0,06016,06007,60001909276,615,97.0,-1.0
2021,060001909278,0609278,Wells Middle,0600019,Dublin Unified,CA-0175093,0175093-6066484,6800 Penn Dr.,Dublin,CA,94568,6800 Penn Dr.,Dublin,CA,94568,(925)828-6227,6,37.711839,-121.918954,488,41860,21,6001,2,1,1,6.0,8.0,,-1.0,-1.0,-1.0,0,-1.0,-1.0,-1.0,46.0,148.0,0.0,148.0,0,0,1,0,999.0,06016,06007,60001909278,615,145.0,-1.0
2021,060001912078,0612078,John Green Elementary,0600019,Dublin Unified,CA-0175093,0175093-0114579,3300 Antone Way,Dublin,CA,94568,3300 Antone Way,Dublin,CA,94568,(925)833-4200,6,37.718702,-121.862542,488,41860,21,6001,1,1,1,0.0,5.0,,-1.0,-1.0,-1.0,0,-1.0,-1.0,-1.0,30.0,24.0,0.0,24.0,1,0,0,0,671.0,06016,06007,60001912078,615,23.0,-1.0
2021,060001912927,0612927,Harold William Kolb,0600019,Dublin Unified,CA-0175093,0175093-0123935,3150 Palermo Way,Dublin,CA,94568,3150 Palermo Way,Dublin,CA,94568,(925)551-4000,6,37.712183,-121.85867,488,41860,41,6001,1,1,1,0.0,5.0,,-1.0,-1.0,-1.0,0,-1.0,-1.0,-1.0,30.0,29.0,0.0,29.0,1,0,0,0,661.0,06016,06007,60001912927,615,29.0,-1.0
2021,060001913169,0613169,Eleanor Murray Fallon,0600019,Dublin Unified,CA-0175093,0175093-0125930,3601 Kohnen Way,Dublin,CA,94568,3601 Kohnen Way,Dublin,CA,94568,(925)875-9376,6,37.715686,-121.865887,488,41860,21,6001,2,1,1,6.0,8.0,,-1.0,-1.0,-1.0,0,-1.0,-1.0,-1.0,67.0,66.0,0.0,66.0,0,0,1,0,1562.0,06016,06007,60001913169,615,65.0,-1.0
2021,060001913862,0613862,J. M. Amador Elementary,0600019,Dublin Unified,CA-0175093,0175093-0131615,2100 E. Cantara Dr.,Dublin,CA,94568,2100 E. Cantara Dr.,Dublin,CA,94568,(925)307-1950,6,37.718762,-121.843041,488,41860,41,6001,1,1,1,0.0,5.0,,-1.0,-1.0,-1.0,0,-1.0,-1.0,-1.0,40.0,26.0,0.0,26.0,1,0,0,0,945.0,06016,06007,60001913862,615,26.0,-1.0
2021,060001914329,0614329,Dublin Unified Preschool,0600019,Dublin Unified,CA-0175093,0175093-0137331,7997 Vomac Rd.,Dublin,CA,94568,7997 Vomac Rd.,Dublin,CA,94568,(925)828-2551,6,37.714587,-121.936063,488,41860,21,6001,-1,1,1,,,,-1.0,-1.0,-1.0,0,-1.0,-1.0,-1.0,,,,,0,1,0,1,,06016,06007,60001914329,615,,-1.0
2021,060001914338,0614338,Dublin Unified Transition Program,0600019,Dublin Unified,CA-0175093,0175093-0138164,6901 York Dr.,Dublin,CA,94568,6901 York Dr.,Dublin,CA,94568,(925)828-2551,6,37.709742,-121.920907,488,41860,21,6001,3,2,1,12.0,12.0,,-1.0,-1.0,-1.0,0,-1.0,-1.0,-1.0,2.0,4.0,0.0,4.0,0,1,0,0,22.0,06016,06007,60001914338,615,3.0,-1.0
2021,060001914370,0614370,Cottonwood Creek,0600019,Dublin Unified,CA-0175093,0175093-0136929,2400 Central Pkwy.,Dublin,CA,94568,2400 Central Pkwy.,Dublin,CA,94568,(925)833-3333,6,37.709123,-121.847002,488,41860,41,6001,1,1,1,0.0,8.0,,-1.0,-1.0,-1.0,0,-1.0,-1.0,-1.0,45.0,49.0,0.0,49.0,1,0,1,0,936.0,06016,06007,60001914370,615,49.0,-1.0
2021,060001914628,0614628,York Alternative Learning Center,0600019,Dublin Unified,CA-0175093,0175093-0141515,6901 York Dr.,Dublin,CA,94568,6901 York Dr.,Dublin,CA,94568,(925)307-1960,6,37.709742,-121.920907,488,41860,21,6001,-1,4,7,,,,,,,0,,,,,,,,0,1,0,1,,06016,06007,60001914628,615,,
2021,060002006951,0606951,Henry P. Mohr Elementary,0600020,Pleasanton Unified,CA-0175101,0175101-6114318,3300 Dennis Dr.,Pleasanton,CA,94588,3300 Dennis Dr.,Pleasanton,CA,94588,(925)426-4256,6,37.692,-121.8606,488,41860,13,6001,1,1,1,0.0,5.0,,-1.0,-1.0,-1.0,0,-1.0,-1.0,-1.0,25.0,36.0,2.0,38.0,1,0,0,0,586.0,06016,06007,60002006951,615,30.0,-1.0
2021,060002008444,0608444,Thomas S. Hart Middle,0600020,Pleasanton Unified,CA-0175101,0175101-6117592,4433 Willow Rd.,Pleasanton,CA,94588,4433 Willow Rd.,Pleasanton,CA,94588,(925)426-3102,6,37.6858,-121.897,488,41860,13,6001,2,1,1,6.0,8.0,,-1.0,-1.0,-1.0,0,-1.0,-1.0,-1.0,51.0,83.0,3.0,86.0,0,0,1,0,1216.0,06016,06007,60002008444,615,65.0,-1.0
2021,060002008445,0608445,Phoebe Apperson Hearst Elementary,0600020,Pleasanton Unified,CA-0175101,0175101-6117600,5301 Case Ave.,Pleasanton,CA,94566,5301 Case Ave.,Pleasanton,CA,94566,(925)426-3772,6,37.6521,-121.8855,488,41860,13,6001,1,1,1,0.0,5.0,,-1.0,-1.0,-1.0,0,-1.0,-1.0,-1.0,21.0,57.0,3.0,60.0,1,0,0,0,578.0,06016,06007,60002008445,615,44.0,-1.0
2021,060002009279,0609279,Foothill High,0600020,Pleasanton Unified,CA-0175101,0175101-0130096,4375 Foothill Rd.,Pleasanton,CA,94588,4375 Foothill Rd.,Pleasanton,CA,94588,(925)461-6600,6,37.6732,-121.9192,488,41860,13,6001,3,1,1,9.0,12.0,,-1.0,-1.0,-1.0,0,-1.0,-1.0,-1.0,91.0,153.0,7.0,160.0,0,1,0,0,2202.0,06016,06007,60002009279,615,126.0,-1.0
2021,060002009280,0609280,Village High,0600020,Pleasanton Unified,CA-0175101,0175101-0130252,4645 Bernal Ave.,Pleasanton,CA,94566,4645 Bernal Ave.,Pleasanton,CA,94566,(925)426-4260,6,37.6558,-121.8749,488,41860,13,6001,3,4,1,9.0,12.0,,-1.0,-1.0,-1.0,0,-1.0,-1.0,-1.0,10.0,26.0,0.0,26.0,0,1,0,0,102.0,06016,06007,60002009280,615,21.0,-1.0
2021,060002009282,0609282,Amador Valley High,0600020,Pleasanton Unified,CA-0175101,0175101-0130583,1155 Santa Rita Rd.,Pleasanton,CA,94566,1155 Santa Rita Rd.,Pleasanton,CA,94566,(925)461-6100,6,37.6684,-121.8751,488,41860,13,6001,3,1,1,9.0,12.0,,-1.0,-1.0,-1.0,0,-1.0,-1.0,-1.0,110.0,187.0,15.0,202.0,0,1,0,0,2699.0,06016,06007,60002009282,615,142.0,-1.0
2021,060002009283,0609283,Donlon Elementary,0600020,Pleasanton Unified,CA-0175101,0175101-6001366,4150 Dorman Rd.,Pleasanton,CA,94588,4150 Dorman Rd.,Pleasanton,CA,94588,(925)426-4220,6,37.6843,-121.908,488,41860,13,6001,1,1,1,0.0,5.0,,-1.0,-1.0,-1.0,0,-1.0,-1.0,-1.0,29.0,50.0,3.0,53.0,1,0,0,0,763.0,06016,06007,60002009283,615,41.0,-1.0
2021,060002009284,0609284,Lydiksen Elementary,0600020,Pleasanton Unified,CA-0175101,0175101-6001416,7700 Highland Oaks Dr.,Pleasanton,CA,94588,7700 Highland Oaks Dr.,Pleasanton,CA,94588,(925)426-4420,6,37.6807,-121.9206,488,41860,13,6001,1,1,1,0.0,5.0,,-1.0,-1.0,-1.0,0,-1.0,-1.0,-1.0,27.0,41.0,1.0,42.0,1,0,0,0,616.0,06016,06007,60002009284,615,32.0,-1.0
2021,060002009285,0609285,Alisal Elementary,0600020,Pleasanton Unified,CA-0175101,0175101-6002315,1454 Santa Rita Rd.,Pleasanton,CA,94566,1454 Santa Rita Rd.,Pleasanton,CA,94566,(925)426-4200,6,37.6719,-121.8708,488,41860,13,6001,1,1,1,0.0,5.0,,-1.0,-1.0,-1.0,0,-1.0,-1.0,-1.0,25.0,27.0,2.0,29.0,1,0,0,0,527.0,06016,06007,60002009285,615,20.0,-1.0
2021,060002009286,0609286,Fairlands Elementary,0600020,Pleasanton Unified,CA-0175101,0175101-6002323,4151 W. Las Positas Blvd.,Pleasanton,CA,94588,4151 W. Las Positas Blvd.,Pleasanton,CA,94588,(925)426-4210,6,37.6924,-121.874,488,41860,13,6001,1,1,1,0.0,5.0,,-1.0,-1.0,-1.0,0,-1.0,-1.0,-1.0,29.0,44.0,5.0,49.0,1,0,0,0,764.0,06016,06007,60002009286,615,33.0,-1.0
2021,060002009287,0609287,Valley View Elementary,0600020,Pleasanton Unified,CA-0175101,0175101-6002349,480 Adams Way,Pleasanton,CA,94566,480 Adams Way,Pleasanton,CA,94566,(925)426-4230,6,37.6603,-121.8622,488,41860,13,6001,1,1,1,0.0,5.0,,-1.0,-1.0,-1.0,0,-1.0,-1.0,-1.0,30.0,105.0,15.0,120.0,1,0,0,0,589.0,06016,06007,60002009287,615,67.0,-1.0
2021,060002009288,0609288,Walnut Grove Elementary,0600020,Pleasanton Unified,CA-0175101,0175101-6002356,1999 Harvest Rd.,Pleasanton,CA,94566,1999 Harvest Rd.,Pleasanton,CA,94566,(925)426-4250,6,37.6732,-121.8855,488,41860,13,6001,1,1,1,0.0,5.0,,-1.0,-1.0,-1.0,0,-1.0,-1.0,-1.0,27.0,23.0,3.0,26.0,1,0,0,0,669.0,06016,06007,60002009288,615,18.0,-1.0
2021,060002009289,0609289,Harvest Park Middle,0600020,Pleasanton Unified,CA-0175101,0175101-6066500,4900 Valley Ave.,Pleasanton,CA,94566,4900 Valley Ave.,Pleasanton,CA,94566,(925)426-4444,6,37.6756,-121.8827,488,41860,13,6001,2,1,1,6.0,8.0,,-1.0,-1.0,-1.0,0,-1.0,-1.0,-1.0,47.0,52.0,8.0,60.0,0,0,1,0,1127.0,06016,06007,60002009289,615,41.0,-1.0
2021,060002009290,0609290,Vintage Hills Elementary,0600020,Pleasanton Unified,CA-0175101,0175101-6089361,1125 Concord St.,Pleasanton,CA,94566,1125 Concord St.,Pleasanton,CA,94566,(925)426-4240,6,37.6555,-121.8554,488,41860,13,6001,1,1,1,0.0,5.0,,-1.0,-1.0,-1.0,0,-1.0,-1.0,-1.0,23.0,26.0,6.0,32.0,1,0,0,0,584.0,06016,06007,60002009290,615,23.0,-1.0
2021,060002009682,0609682,Pleasanton Middle,0600020,Pleasanton Unified,CA-0175101,0175101-6108971,5001 Case Ave.,Pleasanton,CA,94566,5001 Case Ave.,Pleasanton,CA,94566,(925)426-4390,6,37.6547,-121.8839,488,41860,13,6001,2,1,1,6.0,8.0,,-1.0,-1.0,-1.0,0,-1.0,-1.0,-1.0,52.0,99.0,11.0,110.0,0,0,1,0,1042.0,06016,06007,60002009682,615,56.0,-1.0
2021,060002013494,0613494,Harvest Park Preschool Center,0600020,Pleasanton Unified,CA-0175101,0175101-0122986,4900 Valley Ave.,Pleasanton,CA,94566,4900 Valley Ave.,Pleasanton,CA,94566,(925)462-3325,6,37.6756,-121.8827,488,41860,13,6001,-1,1,1,,,,-1.0,-1.0,-1.0,0,-1.0,-1.0,-1.0,,,,,0,1,0,1,,06016,06007,60002013494,615,,-1.0
2021,060002014629,0614629,The Pleasanton Virtual Academy,0600020,Pleasanton Unified,CA-0175101,0175101-0141432,4645 Bernal Ave.,Pleasanton,CA,94566,245 Abbie St.,Pleasanton,CA,94566,(925)426-4260,6,37.656795,-121.875031,488,41860,13,6001,-1,4,7,,,,,,,0,,,,,,,,0,1,0,1,,06016,06007,60002014629,615,,
2021,060002109291,0609291,Sunol Glen Elementary,0600021,Sunol Glen Unified,CA-0175119,0175119-6002711,11601 Main St.,Sunol,CA,94586,11601 Main St.,Sunol,CA,94586,(925)862-2026,6,37.593889,-121.885035,488,41860,41,6001,1,1,1,0.0,8.0,,-1.0,-1.0,-1.0,0,-1.0,-1.0,-1.0,12.0,24.0,0.0,24.0,1,0,1,0,262.0,06020,06007,60002109291,615,24.0,-1.0
2021,060002200374,0600374,Mendota Continuation High,0600022,Mendota Unified,CA-1075127,1075127-1030261,115 McCabe Ave.,Mendota,CA,93640,211 Smoot Ave.,Mendota,CA,93640,(559)655-4412,6,36.754982,-120.390303,260,23420,32,6019,3,4,1,9.0,12.0,,-1.0,-1.0,-1.0,0,-1.0,-1.0,-1.0,2.0,30.0,0.0,30.0,0,1,0,0,33.0,06031,06012,60002200374,621,11.0,-1.0
2021,060002200395,0600395,Mendota High,0600022,Mendota Unified,CA-1075127,1075127-1030493,115 McCabe Ave.,Mendota,CA,93640,1200 Belmont Ave.,Mendota,CA,93640,(559)655-1993,6,36.748115,-120.378616,260,23420,41,6019,3,1,1,9.0,12.0,,-1.0,-1.0,-1.0,0,-1.0,-1.0,-1.0,44.0,920.0,54.0,974.0,0,1,0,0,1006.0,06031,06012,60002200395,621,592.0,-1.0
2021,060002207970,0607970,Mendota Community Day,0600022,Mendota Unified,CA-1075127,1075127-1030725,115 McCabe Ave.,Mendota,CA,93640,241 Smoot Ave.,Mendota,CA,93640,(559)655-4412,6,36.754982,-120.390303,260,23420,32,6019,3,4,1,7.0,12.0,,-1.0,-1.0,-1.0,0,-1.0,-1.0,-1.0,1.0,,,,0,1,1,0,2.0,06031,06012,60002207970,621,,-1.0
2021,060002209292,0609292,McCabe Elementary,0600022,Mendota Unified,CA-1075127,1075127-6006969,115 McCabe Ave.,Mendota,CA,93640,250 S. Derrick St.,Mendota,CA,93640,(559)655-4262,6,36.759553,-120.387228,260,23420,32,6019,1,1,1,2.0,6.0,,-1.0,-1.0,-1.0,0,-1.0,-1.0,-1.0,37.0,912.0,28.0,940.0,1,0,0,0,960.0,06031,06012,60002209292,621,694.0,-1.0
2021,060002209293,0609293,Mendota Junior High,0600022,Mendota Unified,CA-1075127,1075127-6006977,115 McCabe Ave.,Mendota,CA,93640,1258 E. Belmont Ave.,Mendota,CA,93640,(559)655-4301,6,36.748064,-120.382764,260,23420,41,6019,2,1,1,7.0,8.0,,-1.0,-1.0,-1.0,0,-1.0,-1.0,-1.0,25.0,535.0,10.0,545.0,0,0,1,0,560.0,06031,06012,60002209293,621,391.0,-1.0
2021,060002209294,0609294,Washington Elementary,0600022,Mendota Unified,CA-1075127,1075127-6006985,115 McCabe Ave.,Mendota,CA,93640,1599 Fifth St.,Mendota,CA,93640,(559)655-4365,6,36.755285,-120.383232,260,23420,32,6019,1,1,1,0.0,1.0,,-1.0,-1.0,-1.0,0,-1.0,-1.0,-1.0,20.0,363.0,16.0,379.0,1,0,0,0,385.0,06031,06012,60002209294,621,291.0,-1.0
2021,060002213773,0613773,Mendota Elementary,0600022,Mendota Unified,CA-1075127,1075127-0129163,605 Bass Ave.,Mendota,CA,93640,605 Bass Ave.,Mendota,CA,93640,(559)655-2014,6,36.766354,-120.381563,260,23420,41,6019,1,1,1,0.0,6.0,,-1.0,-1.0,-1.0,0,-1.0,-1.0,-1.0,33.0,816.0,25.0,841.0,1,0,0,0,857.0,06031,06012,60002213773,621,622.0,-1.0
2021,060002503570,0603570,Aurelia Pennekamp Elementary,0600025,Manhattan Beach Unified,CA-1975333,1975333-6020325,325 S. Peck Ave.,Manhattan Beach,CA,90266,110 S. Rowell,Manhattan Beach,CA,90266,(310)798-6223,6,33.8788,-118.389,348,31080,21,6037,1,1,1,0.0,5.0,,-1.0,-1.0,-1.0,0,-1.0,-1.0,-1.0,20.0,15.0,0.0,15.0,1,0,0,0,452.0,06066,06026,60002503570,633,15.0,-1.0
2021,060002503573,0603573,Grand View Elementary,0600025,Manhattan Beach Unified,CA-1975333,1975333-6020358,325 S. Peck Ave.,Manhattan Beach,CA,90266,455 24th St.,Manhattan Beach,CA,90266,(310)546-8022,6,33.8944,-118.4126,348,31080,21,6037,1,1,1,0.0,5.0,,-1.0,-1.0,-1.0,0,-1.0,-1.0,-1.0,22.0,10.0,0.0,10.0,1,0,0,0,498.0,06066,06026,60002503573,633,8.0,-1.0
2021,060002503575,0603575,Meadows Avenue Elementary,0600025,Manhattan Beach Unified,CA-1975333,1975333-6020390,325 S. Peck Ave.,Manhattan Beach,CA,90266,1200 Meadows Ave.,Manhattan Beach,CA,90266,(310)546-8033,6,33.8889,-118.3911,348,31080,21,6037,1,1,1,0.0,5.0,,-1.0,-1.0,-1.0,0,-1.0,-1.0,-1.0,17.0,23.0,0.0,23.0,1,0,0,0,397.0,06066,06026,60002503575,633,20.0,-1.0
2021,060002503576,0603576,Pacific Elementary,0600025,Manhattan Beach Unified,CA-1975333,1975333-6020416,325 S. Peck Ave.,Manhattan Beach,CA,90266,1200 Pacific Ave.,Manhattan Beach,CA,90266,(310)546-8044,6,33.8895,-118.4028,348,31080,21,6037,1,1,1,0.0,5.0,,-1.0,-1.0,-1.0,0,-1.0,-1.0,-1.0,22.0,13.0,0.0,13.0,1,0,0,0,518.0,06066,06026,60002503576,633,11.0,-1.0
2021,060002505922,0605922,Opal Robinson Elementary,0600025,Manhattan Beach Unified,CA-1975333,1975333-6020408,325 S. Peck Ave.,Manhattan Beach,CA,90266,80 Morningside Dr.,Manhattan Beach,CA,90266,(310)318-5120,6,33.8779,-118.4043,348,31080,21,6037,1,1,1,0.0,5.0,,-1.0,-1.0,-1.0,0,-1.0,-1.0,-1.0,12.0,8.0,0.0,8.0,1,0,0,0,261.0,06066,06026,60002505922,633,7.0,-1.0
2021,060002506328,0606328,Mira Costa High,0600025,Manhattan Beach Unified,CA-1975333,1975333-1935808,325 S. Peck Ave.,Manhattan Beach,CA,90266,1401 Artesia Blvd.,Manhattan Beach,CA,90266,(310)318-7337,6,33.8747,-118.3894,348,31080,21,6037,3,1,1,9.0,12.0,,-1.0,-1.0,-1.0,0,-1.0,-1.0,-1.0,98.0,134.0,2.0,136.0,0,1,0,0,2448.0,06066,06026,60002506328,633,123.0,-1.0
2021,060002507535,0607535,Manhattan Beach Middle,0600025,Manhattan Beach Unified,CA-1975333,1975333-6115307,325 S. Peck Ave.,Manhattan Beach,CA,90266,1501 N. Redondo Ave.,Manhattan Beach,CA,90266,(310)545-4878,6,33.8896,-118.3837,348,31080,21,6037,2,1,1,6.0,8.0,,-1.0,-1.0,-1.0,0,-1.0,-1.0,-1.0,55.0,55.0,3.0,58.0,0,0,1,0,1249.0,06066,06026,60002507535,633,45.0,-1.0
2021,060002513480,0613480,Manhattan Beach Preschool,0600025,Manhattan Beach Unified,CA-1975333,1975333-0116103,1431 15th St.,Manhattan Beach,CA,90266,1431 15th St.,Manhattan Beach,CA,90266,(310)546-7655,6,33.889,-118.3884,348,31080,21,6037,-1,1,1,,,,-1.0,-1.0,-1.0,0,-1.0,-1.0,-1.0,,,,,0,1,0,1,,06066,06026,60002513480,633,,-1.0
2021,060002604544,0604544,Frazier Mountain High,0600026,El Tejon Unified,CA-1575168,1575168-1530401,PO Box 876,Lebec,CA,93243,700 Falcon Way,Lebec,CA,93243,(661)248-0310,6,34.799712,-118.891466,-2,12540,41,6029,3,1,1,9.0,12.0,,-1.0,-1.0,-1.0,0,-1.0,-1.0,-1.0,12.0,149.0,23.0,172.0,0,1,0,0,254.0,06034,06016,60002604544,623,104.0,-1.0
2021,060002609485,0609485,El Tejon Elementary,0600026,El Tejon Unified,CA-1575168,1575168-6009468,PO Box 876,Lebec,CA,93243,4337 Lebec Rd.,Lebec,CA,93243,(661)248-6680,6,34.873258,-118.887523,-2,12540,42,6029,2,1,1,5.0,8.0,,-1.0,-1.0,-1.0,0,-1.0,-1.0,-1.0,9.0,125.0,22.0,147.0,0,0,1,0,186.0,06034,06016,60002609485,623,88.0,-1.0
2021,060002609486,0609486,Frazier Park Elementary,0600026,El Tejon Unified,CA-1575168,1575168-6009476,PO Box 876,Lebec,CA,93243,3149 San Carlos Trail,Frazier Park,CA,93243,(661)245-3312,6,34.822548,-118.939602,-2,12540,32,6029,1,1,1,0.0,4.0,,-1.0,-1.0,-1.0,0,-1.0,-1.0,-1.0,12.0,160.0,17.0,177.0,1,0,0,0,244.0,06034,06016,60002609486,623,118.0,-1.0
2021,060002702451,0602451,Tuscany Hills Elementary,0600027,Lake Elsinore Unified,CA-3375176,3375176-6111082,23 Ponte Russo,Lake Elsinore,CA,92532,23 Ponte Russo,Lake Elsinore,CA,92532,(951)245-6850,6,33.6862,-117.289,348,40140,21,6065,1,1,1,0.0,5.0,,-1.0,-1.0,-1.0,0,-1.0,-1.0,-1.0,30.0,239.0,43.0,282.0,1,0,0,0,636.0,06067,06028,60002702451,642,177.0,-1.0
2021,060002702452,0602452,Donald Graham Elementary,0600027,Lake Elsinore Unified,CA-3375176,3375176-6111090,35450 Frederick St.,Wildomar,CA,92595,35450 Frederick St.,Wildomar,CA,92595,(951)253-7590,6,33.6059,-117.257,348,40140,21,6065,1,1,1,0.0,5.0,,-1.0,-1.0,-1.0,0,-1.0,-1.0,-1.0,23.0,220.0,28.0,248.0,1,0,0,0,446.0,06067,06028,60002702452,642,182.0,-1.0
2021,060002705011,0605011,David A. Brown Middle,0600027,Lake Elsinore Unified,CA-3375176,3375176-6112734,21861 Grand Ave.,Wildomar,CA,92595,21861 Grand Ave.,Wildomar,CA,92595,(951)253-7430,6,33.5916,-117.2762,348,40140,41,6065,2,1,1,6.0,8.0,,-1.0,-1.0,-1.0,0,-1.0,-1.0,-1.0,42.0,566.0,90.0,656.0,0,0,1,0,1005.0,06067,06028,60002705011,642,429.0,-1.0
2021,060002707605,0607605,William Collier Elementary,0600027,Lake Elsinore Unified,CA-3375176,3375176-6115174,20150 Mayhall Dr.,Wildomar,CA,92595,20150 Mayhall Dr.,Wildomar,CA,92595,(951)253-7630,6,33.6166,-117.301,348,40140,21,6065,1,1,1,0.0,5.0,,-1.0,-1.0,-1.0,0,-1.0,-1.0,-1.0,30.0,399.0,63.0,462.0,1,0,0,0,693.0,06067,06028,60002707605,642,309.0,-1.0
2021,060002709488,0609488,Ortega High,0600027,Lake Elsinore Unified,CA-3375176,3375176-3330115,520 Chaney St. Bldg. 100,Lake Elsinore,CA,92530,520 Chaney St. Bldg. 100,Lake Elsinore,CA,92530,(951)253-7065,6,33.6817,-117.336,348,40140,21,6065,3,4,1,9.0,12.0,,-1.0,-1.0,-1.0,0,-1.0,-1.0,-1.0,26.0,277.0,47.0,324.0,0,1,0,0,455.0,06067,06028,60002709488,642,187.0,-1.0
2021,060002709489,0609489,Elsinore High,0600027,Lake Elsinore Unified,CA-3375176,3375176-3332350,21800 Canyon Dr.,Wildomar,CA,92595,21800 Canyon Dr.,Wildomar,CA,92595,(951)253-7200,6,33.6241,-117.2788,348,40140,21,6065,3,1,1,9.0,12.0,,-1.0,-1.0,-1.0,0,-1.0,-1.0,-1.0,89.0,1089.0,212.0,1301.0,0,1,0,0,2105.0,06067,06028,60002709489,642,755.0,-1.0
2021,060002709490,0609490,Elsinore Elementary,0600027,Lake Elsinore Unified,CA-3375176,3375176-6032031,512 W. Sumner Ave.,Lake Elsinore,CA,92530,512 W. Sumner Ave.,Lake Elsinore,CA,92530,(951)253-7615,6,33.6724,-117.3323,348,40140,21,6065,1,1,1,0.0,5.0,,-1.0,-1.0,-1.0,0,-1.0,-1.0,-1.0,25.0,385.0,28.0,413.0,1,0,0,0,494.0,06067,06028,60002709490,642,290.0,-1.0
2021,060002709491,0609491,Machado Elementary,0600027,Lake Elsinore Unified,CA-3375176,3375176-6032056,15150 Joy St.,Lake Elsinore,CA,92530,15150 Joy St.,Lake Elsinore,CA,92530,(951)253-7500,6,33.6835,-117.3759,348,40140,21,6065,1,1,1,0.0,5.0,,-1.0,-1.0,-1.0,0,-1.0,-1.0,-1.0,27.0,434.0,49.0,483.0,1,0,0,0,583.0,06067,06028,60002709491,642,346.0,-1.0
2021,060002709492,0609492,Wildomar Elementary,0600027,Lake Elsinore Unified,CA-3375176,3375176-6032064,21575 Palomar Rd.,Wildomar,CA,92595,21575 Palomar Rd.,Wildomar,CA,92595,(951)253-7555,6,33.603,-117.2723,348,40140,21,6065,1,1,1,0.0,5.0,,-1.0,-1.0,-1.0,0,-1.0,-1.0,-1.0,14.0,373.0,37.0,410.0,1,0,0,0,570.0,06067,06028,60002709492,642,295.0,-1.0
2021,060002709493,0609493,Elsinore Middle,0600027,Lake Elsinore Unified,CA-3375176,3375176-6071203,1203 W. Graham Ave.,Lake Elsinore,CA,92530,1203 W. Graham Ave.,Lake Elsinore,CA,92530,(951)674-2118,6,33.6727,-117.3403,348,40140,21,6065,2,1,1,6.0,8.0,,-1.0,-1.0,-1.0,0,-1.0,-1.0,-1.0,40.0,555.0,76.0,631.0,0,0,1,0,919.0,06067,06028,60002709493,642,377.0,-1.0
2021,060002709496,0609496,Terra Cotta Middle,0600027,Lake Elsinore Unified,CA-3375176,3375176-6105548,29291 Lake St.,Lake Elsinore,CA,92530,29291 Lake St.,Lake Elsinore,CA,92530,(951)253-7380,6,33.694,-117.3928,348,40140,21,6065,2,1,1,6.0,8.0,,-1.0,-1.0,-1.0,0,-1.0,-1.0,-1.0,44.0,641.0,116.0,757.0,0,0,1,0,1057.0,06067,06028,60002709496,642,461.0,-1.0
2021,060002709497,0609497,Railroad Canyon Elementary,0600027,Lake Elsinore Unified,CA-3375176,3375176-6107189,1300 Mill St.,Lake Elsinore,CA,92530,1300 Mill St.,Lake Elsinore,CA,92530,(951)253-7510,6,33.6644,-117.3092,348,40140,21,6065,1,1,1,0.0,5.0,,-1.0,-1.0,-1.0,0,-1.0,-1.0,-1.0,38.0,508.0,78.0,586.0,1,0,0,0,784.0,06067,06028,60002709497,642,385.0,-1.0
2021,060002709498,0609498,Withrow Elementary,0600027,Lake Elsinore Unified,CA-3375176,3375176-6108278,30100 Audelo St.,Lake Elsinore,CA,92530,30100 Audelo St.,Lake Elsinore,CA,92530,(951)253-7570,6,33.6832,-117.3956,348,40140,21,6065,1,1,1,0.0,5.0,,-1.0,-1.0,-1.0,0,-1.0,-1.0,-1.0,28.0,441.0,64.0,505.0,1,0,0,0,649.0,06067,06028,60002709498,642,335.0,-1.0
2021,060002710280,0610280,Temescal Canyon High,0600027,Lake Elsinore Unified,CA-3375176,3375176-3330487,28755 El Toro Rd.,Lake Elsinore,CA,92532,28755 El Toro Rd.,Lake Elsinore,CA,92532,(951)253-7250,6,33.7033,-117.3479,348,40140,21,6065,3,1,1,9.0,12.0,,-1.0,-1.0,-1.0,0,-1.0,-1.0,-1.0,91.0,896.0,226.0,1122.0,0,1,0,0,2161.0,06067,06028,60002710280,642,643.0,-1.0
2021,060002710281,0610281,Luiseno,0600027,Lake Elsinore Unified,CA-3375176,3375176-6109938,13500 Mountain Rd.,Corona,CA,92883,13500 Mountain Rd.,Corona,CA,92883,(951)253-7480,6,33.725,-117.4245,348,40140,21,6065,1,1,1,0.0,8.0,,-1.0,-1.0,-1.0,0,-1.0,-1.0,-1.0,38.0,276.0,25.0,301.0,1,0,1,0,822.0,06067,06028,60002710281,642,217.0,-1.0
2021,060002710352,0610352,Rice Canyon Elementary,0600027,Lake Elsinore Unified,CA-3375176,3375176-6118442,29535 W.wind Dr.,Lake Elsinore,CA,92530,29535 W.wind Dr.,Lake Elsinore,CA,92530,(951)471-2184,6,33.6979,-117.4015,348,40140,21,6065,1,1,1,0.0,5.0,,-1.0,-1.0,-1.0,0,-1.0,-1.0,-1.0,32.0,318.0,55.0,373.0,1,0,0,0,607.0,06067,06028,60002710352,642,193.0,-1.0
2021,060002710587,0610587,Cottonwood Canyon Elementary,0600027,Lake Elsinore Unified,CA-3375176,3375176-6120455,32100 Lost Rd.,Lake Elsinore,CA,92532,32100 Lost Rd.,Lake Elsinore,CA,92532,(951)244-2585,6,33.6582,-117.2567,348,40140,21,6065,1,1,1,0.0,5.0,,-1.0,-1.0,-1.0,0,-1.0,-1.0,-1.0,35.0,273.0,24.0,297.0,1,0,0,0,782.0,06067,06028,60002710587,642,210.0,-1.0
2021,060002710588,0610588,Canyon Lake Middle,0600027,Lake Elsinore Unified,CA-3375176,3375176-6120463,33005 Canyon Hills Rd.,Lake Elsinore,CA,92532,33005 Canyon Hills Rd.,Lake Elsinore,CA,92532,(951)244-2123,6,33.6594,-117.2537,348,40140,21,6065,2,1,1,6.0,8.0,,-1.0,-1.0,-1.0,0,-1.0,-1.0,-1.0,40.0,358.0,120.0,478.0,0,0,1,0,934.0,06067,06028,60002710588,642,257.0,-1.0
2021,060002711036,0611036,Lakeside High,0600027,Lake Elsinore Unified,CA-3375176,3375176-0107920,32593 Riverside Dr.,Lake Elsinore,CA,92530,32593 Riverside Dr.,Lake Elsinore,CA,92530,(951)253-7300,6,33.6693,-117.3827,348,40140,21,6065,3,1,1,9.0,12.0,,-1.0,-1.0,-1.0,0,-1.0,-1.0,-1.0,77.0,1009.0,214.0,1223.0,0,1,0,0,1761.0,06067,06028,60002711036,642,712.0,-1.0
2021,060002711037,0611037,Ronald Reagan Elementary,0600027,Lake Elsinore Unified,CA-3375176,3375176-0108241,35445 Porras Rd.,Wildomar,CA,92595,35445 Porras Rd.,Wildomar,CA,92595,(951)253-7650,6,33.606,-117.242,348,40140,21,6065,1,1,1,0.0,5.0,,-1.0,-1.0,-1.0,0,-1.0,-1.0,-1.0,25.0,255.0,45.0,300.0,1,0,0,0,560.0,06067,06028,60002711037,642,206.0,-1.0
2021,060002712001,0612001,Earl Warren Elementary,0600027,Lake Elsinore Unified,CA-3375176,3375176-0113100,41221 Rosetta Canyon Rd.,Lake Elsinore,CA,92532,41221 Rosetta Canyon Rd.,Lake Elsinore,CA,92532,(951)253-7810,6,33.6961,-117.3173,348,40140,21,6065,1,1,1,0.0,5.0,,-1.0,-1.0,-1.0,0,-1.0,-1.0,-1.0,35.0,425.0,61.0,486.0,1,0,0,0,827.0,06067,06028,60002712001,642,313.0,-1.0
2021,060002712094,0612094,Keith McCarthy Academy,0600027,Lake Elsinore Unified,CA-3375176,3375176-0116343,1405 Ed Way,Lake Elsinore,CA,92530,1405 Ed Way,Lake Elsinore,CA,92530,(951)253-7777,6,33.682637,-117.335312,348,40140,21,6065,3,4,1,6.0,12.0,,-1.0,-1.0,-1.0,0,-1.0,-1.0,-1.0,16.0,346.0,51.0,397.0,0,1,1,0,608.0,06067,06028,60002712094,642,258.0,-1.0
2021,060002712772,0612772,Lakeland Village,0600027,Lake Elsinore Unified,CA-3375176,3375176-0122960,18730 Grand Ave.,Lake Elsinore,CA,92530,18730 Grand Ave.,Lake Elsinore,CA,92530,(951)253-7400,6,33.6278,-117.3249,348,40140,21,6065,1,1,1,0.0,8.0,,-1.0,-1.0,-1.0,0,-1.0,-1.0,-1.0,43.0,607.0,66.0,673.0,1,0,1,0,842.0,06067,06028,60002712772,642,483.0,-1.0
2021,060002713213,0613213,Preschool,0600027,Lake Elsinore Unified,CA-3375176,3375176-0116798,545 Chaney St.,Lake Elsinore,CA,92580,565 Chaney St.,Lake Elsinore,CA,92580,(951)253-7091,6,33.683481,-117.335783,348,40140,21,6065,-1,1,1,,,,-1.0,-1.0,-1.0,0,-1.0,-1.0,-1.0,,,,,0,1,0,1,,06067,06028,60002713213,642,,-1.0
2021,060002714467,0614467,Alberhill Elementary,0600027,Lake Elsinore Unified,CA-3375176,3375176-0139790,4170 Brianna Cir.,Lake Elsinore,CA,92530,4170 Brianna Cir.,Lake Elsinore,CA,92530,(951)440-3910,6,33.709375,-117.381866,348,40140,21,6065,1,1,1,0.0,5.0,,-1.0,-1.0,-1.0,0,-1.0,-1.0,-1.0,19.0,199.0,39.0,238.0,1,0,0,0,378.0,06067,06028,60002714467,642,140.0,-1.0
2021,060002803647,0603647,Vail Ranch Middle,0600028,Temecula Valley Unified,CA-3375192,3375192-6112098,33340 Camino Piedra Rojo,Temecula,CA,92592,33340 Camino Piedra Rojo,Temecula,CA,92592,(951)302-5188,6,33.4818,-117.0772,348,40140,12,6065,2,1,1,6.0,8.0,,-1.0,-1.0,-1.0,0,-1.0,-1.0,-1.0,36.0,180.0,17.0,197.0,0,0,1,0,834.0,06075,06028,60002803647,650,138.0,-1.0
2021,060002805012,0605012,Paloma Elementary,0600028,Temecula Valley Unified,CA-3375192,3375192-6112809,42940 Via Rami,Temecula,CA,92592,42940 Via Rami,Temecula,CA,92592,(951)302-5165,6,33.5006,-117.1055,348,40140,12,6065,1,1,1,0.0,5.0,,-1.0,-1.0,-1.0,0,-1.0,-1.0,-1.0,20.0,119.0,15.0,134.0,1,0,0,0,496.0,06075,06028,60002805012,650,102.0,-1.0
2021,060002806276,0606276,Pauba Valley Elementary,0600028,Temecula Valley Unified,CA-3375192,3375192-6113641,33125 Regina Dr.,Temecula,CA,92592,33125 Regina Dr.,Temecula,CA,92592,(951)302-5140,6,33.4722,-117.0807,348,40140,12,6065,1,1,1,0.0,5.0,,-1.0,-1.0,-1.0,0,-1.0,-1.0,-1.0,22.0,133.0,17.0,150.0,1,0,0,0,539.0,06075,06028,60002806276,650,109.0,-1.0
2021,060002807222,0607222,Chaparral High,0600028,Temecula Valley Unified,CA-3375192,3375192-3330743,27215 Nicolas Rd.,Temecula,CA,92591,27215 Nicolas Rd.,Temecula,CA,92591,(951)695-4200,6,33.5384,-117.1475,348,40140,12,6065,3,1,1,9.0,12.0,,-1.0,-1.0,-1.0,0,-1.0,-1.0,-1.0,107.0,711.0,101.0,812.0,0,1,0,0,2973.0,06075,06028,60002807222,642,547.0,-1.0
2021,060002807223,0607223,Vintage Hills Elementary,0600028,Temecula Valley Unified,CA-3375192,3375192-6114243,42240 Camino Romo,Temecula,CA,92592,42240 Camino Romo,Temecula,CA,92592,(951)695-4260,6,33.5084,-117.0994,348,40140,12,6065,1,1,1,0.0,5.0,,-1.0,-1.0,-1.0,0,-1.0,-1.0,-1.0,21.0,127.0,13.0,140.0,1,0,0,0,518.0,06075,06028,60002807223,650,113.0,-1.0
2021,060002808270,0608270,Helen Hunt Jackson Elementary,0600028,Temecula Valley Unified,CA-3375192,3375192-6116438,32400 Camino San Dimas,Temecula,CA,92592,32400 Camino San Dimas,Temecula,CA,92592,(951)302-5199,6,33.4601,-117.0909,348,40140,12,6065,1,1,1,0.0,5.0,,-1.0,-1.0,-1.0,0,-1.0,-1.0,-1.0,16.0,78.0,8.0,86.0,1,0,0,0,416.0,06075,06028,60002808270,650,67.0,-1.0
2021,060002808271,0608271,Abby Reinke Elementary,0600028,Temecula Valley Unified,CA-3375192,3375192-6116446,43799 Sunny Meadows Dr.,Temecula,CA,92592,43799 Sunny Meadows Dr.,Temecula,CA,92592,(951)302-6610,6,33.492,-117.0873,348,40140,12,6065,1,1,1,0.0,5.0,,-1.0,-1.0,-1.0,0,-1.0,-1.0,-1.0,25.0,121.0,16.0,137.0,1,0,0,0,614.0,06075,06028,60002808271,650,108.0,-1.0
2021,060002808272,0608272,James L. Day Middle,0600028,Temecula Valley Unified,CA-3375192,3375192-6116453,40775 Camino Campos Verdes,Temecula,CA,92591,40775 Camino Campos Verdes,Temecula,CA,92591,(951)699-8138,6,33.5274,-117.1452,348,40140,12,6065,2,1,1,6.0,8.0,,-1.0,-1.0,-1.0,0,-1.0,-1.0,-1.0,39.0,283.0,31.0,314.0,0,0,1,0,919.0,06075,06028,60002808272,642,219.0,-1.0
2021,060002809499,0609499,Temecula Valley High,0600028,Temecula Valley Unified,CA-3375192,3375192-3330370,31555 Rancho Vista Rd.,Temecula,CA,92592,31555 Rancho Vista Rd.,Temecula,CA,92592,(951)695-7300,6,33.5022,-117.1181,348,40140,12,6065,3,1,1,9.0,12.0,,-1.0,-1.0,-1.0,0,-1.0,-1.0,-1.0,107.0,682.0,79.0,761.0,0,1,0,0,2925.0,06075,06028,60002809499,650,527.0,-1.0
2021,060002809500,0609500,Rancho Vista High,0600028,Temecula Valley Unified,CA-3375192,3375192-3330495,32225 Pio Pico Rd.,Temecula,CA,92592,32225 Pio Pico Rd.,Temecula,CA,92592,(951)695-7320,6,33.4877,-117.1041,348,40140,12,6065,3,4,1,9.0,12.0,,-1.0,-1.0,-1.0,0,-1.0,-1.0,-1.0,15.0,84.0,5.0,89.0,0,1,0,0,202.0,06075,06028,60002809500,650,72.0,-1.0
2021,060002809501,0609501,Temecula Middle,0600028,Temecula Valley Unified,CA-3375192,3375192-6032825,42075 Meadows Pkwy.,Temecula,CA,92592,42075 Meadows Pkwy.,Temecula,CA,92592,(951)302-5151,6,33.5033,-117.0967,348,40140,12,6065,2,1,1,6.0,8.0,,-1.0,-1.0,-1.0,0,-1.0,-1.0,-1.0,39.0,201.0,14.0,215.0,0,0,1,0,974.0,06075,06028,60002809501,650,166.0,-1.0
2021,060002809502,0609502,Vail Elementary,0600028,Temecula Valley Unified,CA-3375192,3375192-6096994,29835 Mira Loma Dr.,Temecula,CA,92592,29835 Mira Loma Dr.,Temecula,CA,92592,(951)695-7140,6,33.5031,-117.1364,348,40140,12,6065,1,1,1,0.0,5.0,,-1.0,-1.0,-1.0,0,-1.0,-1.0,-1.0,22.0,222.0,19.0,241.0,1,0,0,0,483.0,06075,06028,60002809502,650,173.0,-1.0
2021,060002809503,0609503,Rancho Elementary,0600028,Temecula Valley Unified,CA-3375192,3375192-6106017,31530 La Serena Way,Temecula,CA,92591,31530 La Serena Way,Temecula,CA,92591,(951)695-7150,6,33.5266,-117.1133,348,40140,12,6065,1,1,1,0.0,5.0,,-1.0,-1.0,-1.0,0,-1.0,-1.0,-1.0,16.0,110.0,15.0,125.0,1,0,0,0,429.0,06075,06028,60002809503,642,100.0,-1.0
2021,060002809505,0609505,Margarita Middle,0600028,Temecula Valley Unified,CA-3375192,3375192-6107254,30600 Margarita Rd.,Temecula,CA,92591,30600 Margarita Rd.,Temecula,CA,92591,(951)695-7370,6,33.5168,-117.1286,348,40140,12,6065,2,1,1,6.0,8.0,,-1.0,-1.0,-1.0,0,-1.0,-1.0,-1.0,36.0,269.0,37.0,306.0,0,0,1,0,779.0,06075,06028,60002809505,642,210.0,-1.0
2021,060002809506,0609506,Temecula Elementary,0600028,Temecula Valley Unified,CA-3375192,3375192-6108427,41951 Moraga Rd.,Temecula,CA,92591,41951 Moraga Rd.,Temecula,CA,92591,(951)695-7130,6,33.5107,-117.1417,348,40140,12,6065,1,1,1,0.0,5.0,,-1.0,-1.0,-1.0,0,-1.0,-1.0,-1.0,22.0,288.0,32.0,320.0,1,0,0,0,528.0,06075,06028,60002809506,650,231.0,-1.0
2021,060002809684,0609684,Nicolas Valley Elementary,0600028,Temecula Valley Unified,CA-3375192,3375192-6109417,39600 N. General Kearney Rd.,Temecula,CA,92591,39600 N. General Kearney Rd.,Temecula,CA,92591,(951)695-7180,6,33.546466,-117.125722,348,40140,21,6065,1,1,1,0.0,5.0,,-1.0,-1.0,-1.0,0,-1.0,-1.0,-1.0,25.0,214.0,41.0,255.0,1,0,0,0,705.0,06075,06028,60002809684,642,174.0,-1.0
2021,060002810282,0610282,Red Hawk Elementary,0600028,Temecula Valley Unified,CA-3375192,3375192-6110084,32045 Camino San Jose,Temecula,CA,92592,32045 Camino San Jose,Temecula,CA,92592,(951)302-5125,6,33.4687,-117.0993,348,40140,12,6065,1,1,1,0.0,5.0,,-1.0,-1.0,-1.0,0,-1.0,-1.0,-1.0,22.0,146.0,32.0,178.0,1,0,0,0,520.0,06075,06028,60002810282,650,121.0,-1.0
2021,060002810353,0610353,Ysabel Barnett Elementary,0600028,Temecula Valley Unified,CA-3375192,3375192-6118822,39925 Harveston Dr.,Temecula,CA,92591,39925 Harveston Dr.,Temecula,CA,92591,(951)296-5579,6,33.5407,-117.1534,348,40140,12,6065,1,1,1,0.0,5.0,,-1.0,-1.0,-1.0,0,-1.0,-1.0,-1.0,31.0,173.0,20.0,193.0,1,0,0,0,727.0,06075,06028,60002810353,642,141.0,-1.0
2021,060002810589,0610589,Susan H. Nelson,0600028,Temecula Valley Unified,CA-3375192,3375192-3330636,32225 Pio Pico Rd.,Temecula,CA,92592,32225 Pio Pico Rd.,Temecula,CA,92592,(951)695-7360,6,33.4877,-117.1041,348,40140,12,6065,3,4,1,6.0,12.0,,-1.0,-1.0,-1.0,0,-1.0,-1.0,-1.0,10.0,88.0,12.0,100.0,0,1,1,0,338.0,06075,06028,60002810589,650,79.0,-1.0
2021,060002811038,0611038,Great Oak High,0600028,Temecula Valley Unified,CA-3375192,3375192-0105734,32555 Deer Hollow Way,Temecula,CA,92592,32555 Deer Hollow Way,Temecula,CA,92592,(951)294-6450,6,33.4527,-117.0922,348,40140,12,6065,3,1,1,9.0,12.0,,-1.0,-1.0,-1.0,0,-1.0,-1.0,-1.0,115.0,526.0,75.0,601.0,0,1,0,0,3082.0,06075,06028,60002811038,650,406.0,-1.0
2021,060002811039,0611039,Alamos Elementary,0600028,Temecula Valley Unified,CA-3375192,3375192-0105742,38200 Pacific Park Dr.,Murrieta,CA,92563,38200 Pacific Park Dr.,Murrieta,CA,92563,(951)294-6760,6,33.5635,-117.1106,348,40140,21,6065,1,1,1,0.0,5.0,,-1.0,-1.0,-1.0,0,-1.0,-1.0,-1.0,34.0,166.0,33.0,199.0,1,0,0,0,852.0,06075,06028,60002811039,642,135.0,-1.0
2021,060002811040,0611040,Bella Vista Middle,0600028,Temecula Valley Unified,CA-3375192,3375192-0105759,31650 Browning St.,Murrieta,CA,92563,31650 Browning St.,Murrieta,CA,92563,(951)294-6600,6,33.5623,-117.1053,348,40140,21,6065,2,1,1,6.0,8.0,,-1.0,-1.0,-1.0,0,-1.0,-1.0,-1.0,51.0,334.0,51.0,385.0,0,0,1,0,1365.0,06075,06028,60002811040,642,248.0,-1.0
2021,060002811041,0611041,Crowne Hill Elementary,0600028,Temecula Valley Unified,CA-3375192,3375192-0108480,33535 Old Kent Rd.,Temecula,CA,92592,33535 Old Kent Rd.,Temecula,CA,92592,(951)294-6370,6,33.4972,-117.0754,348,40140,12,6065,1,1,1,0.0,5.0,,-1.0,-1.0,-1.0,0,-1.0,-1.0,-1.0,23.0,125.0,9.0,134.0,1,0,0,0,495.0,06075,06028,60002811041,650,95.0,-1.0
2021,060002811042,0611042,Susan La Vorgna Elementary,0600028,Temecula Valley Unified,CA-3375192,3375192-0108498,31777 Algarve Ave.,Winchester,CA,92596,31777 Algarve Ave.,Winchester,CA,92596,(951)294-6385,6,33.6048,-117.1042,348,40140,21,6065,1,1,1,0.0,5.0,,-1.0,-1.0,-1.0,0,-1.0,-1.0,-1.0,30.0,202.0,28.0,230.0,1,0,0,0,809.0,06067,06028,60002811042,642,148.0,-1.0
2021,060002811043,0611043,Tony Tobin Elementary,0600028,Temecula Valley Unified,CA-3375192,3375192-0108506,45200 Morgan Hill Dr.,Temecula,CA,92592,45200 Morgan Hill Dr.,Temecula,CA,92592,(951)294-6355,6,33.4695,-117.0682,348,40140,21,6065,1,1,1,0.0,5.0,,-1.0,-1.0,-1.0,0,-1.0,-1.0,-1.0,30.0,116.0,13.0,129.0,1,0,0,0,734.0,06075,06028,60002811043,642,99.0,-1.0
2021,060002811170,0611170,French Valley Elementary,0600028,Temecula Valley Unified,CA-3375192,3375192-0101097,36680 Cady Rd.,Winchester,CA,92596,36680 Cady Rd.,Winchester,CA,92596,(951)926-3643,6,33.5888,-117.0958,348,40140,21,6065,1,1,1,0.0,5.0,,-1.0,-1.0,-1.0,0,-1.0,-1.0,-1.0,35.0,205.0,25.0,230.0,1,0,0,0,870.0,06067,06028,60002811170,642,155.0,-1.0
2021,060002811187,0611187,Erle Stanley Gardner Middle,0600028,Temecula Valley Unified,CA-3375192,3375192-0101105,45125 Via Del Coronado,Temecula,CA,92592,45125 Via Del Coronado,Temecula,CA,92592,(951)699-0080,6,33.4695,-117.1096,348,40140,12,6065,2,1,1,6.0,8.0,,-1.0,-1.0,-1.0,0,-1.0,-1.0,-1.0,43.0,232.0,31.0,263.0,0,0,1,0,1042.0,06075,06028,60002811187,650,190.0,-1.0
2021,060002811838,0611838,Temecula Luiseno Elementary,0600028,Temecula Valley Unified,CA-3375192,3375192-0113696,45754 Wolf Creek Dr. N.,Temecula,CA,92592,45754 Wolf Creek Dr. N.,Temecula,CA,92592,(951)294-6340,6,33.464,-117.1077,348,40140,12,6065,1,1,1,0.0,5.0,,-1.0,-1.0,-1.0,0,-1.0,-1.0,-1.0,30.0,170.0,30.0,200.0,1,0,0,0,757.0,06075,06028,60002811838,650,134.0,-1.0
2021,060002814529,0614529,Home INstead INnovation Academy,0600028,Temecula Valley Unified,CA-3375192,3375192-0140947,35780 Abelia Rd.,Winchester Ca,CA,92596,35780 Abelia Rd.,Winchester Ca,CA,92596,(951)309-9177,6,33.606647,-117.084609,348,40140,21,6065,1,4,1,0.0,8.0,,-1.0,-1.0,-1.0,0,-1.0,-1.0,-1.0,23.0,216.0,6.0,222.0,1,0,1,0,620.0,06067,06028,60002814529,642,198.0,-1.0
2021,060002903649,0603649,Thompson Middle,0600029,Murrieta Valley Unified,CA-3375200,3375200-6112429,24040 Hayes Ave.,Murrieta,CA,92562,24040 Hayes Ave.,Murrieta,CA,92562,(951)696-1410,6,33.562608,-117.233824,348,40140,21,6065,2,1,1,6.0,8.0,,-1.0,-1.0,-1.0,0,-1.0,-1.0,-1.0,60.0,408.0,62.0,470.0,0,0,1,0,1533.0,06067,06028,60002903649,642,326.0,-1.0
2021,060002906282,0606282,Tovashal Elementary,0600029,Murrieta Valley Unified,CA-3375200,3375200-6113625,23801 St. Raphael Dr.,Murrieta,CA,92562,23801 St. Raphael Dr.,Murrieta,CA,92562,(951)696-1411,6,33.593448,-117.201574,348,40140,21,6065,1,1,1,0.0,5.0,,-1.0,-1.0,-1.0,0,-1.0,-1.0,-1.0,30.0,218.0,29.0,247.0,1,0,0,0,713.0,06067,06028,60002906282,642,173.0,-1.0
2021,060002908565,0608565,Cole Canyon Elementary,0600029,Murrieta Valley Unified,CA-3375200,3375200-6117659,23750 Via Alisol,Murrieta,CA,92562,23750 Via Alisol,Murrieta,CA,92562,(951)696-1421,6,33.574915,-117.247079,348,40140,21,6065,1,1,1,0.0,5.0,,-1.0,-1.0,-1.0,0,-1.0,-1.0,-1.0,39.0,239.0,32.0,271.0,1,0,0,0,1033.0,06067,06028,60002908565,642,168.0,-1.0
2021,060002909507,0609507,Murrieta Elementary,0600029,Murrieta Valley Unified,CA-3375200,3375200-6032346,24725 Adams Ave.,Murrieta,CA,92562,24725 Adams Ave.,Murrieta,CA,92562,(951)696-1401,6,33.5569,-117.213,348,40140,21,6065,1,1,1,0.0,5.0,,-1.0,-1.0,-1.0,0,-1.0,-1.0,-1.0,33.0,323.0,38.0,361.0,1,0,0,0,912.0,06067,06028,60002909507,642,259.0,-1.0
2021,060002909508,0609508,Avaxat Elementary,0600029,Murrieta Valley Unified,CA-3375200,3375200-6106868,24300 Rancho Las Brisas Dr.,Murrieta,CA,92562,24300 Rancho Las Brisas Dr.,Murrieta,CA,92562,(951)696-1402,6,33.5852,-117.1893,348,40140,21,6065,1,1,1,0.0,5.0,,-1.0,-1.0,-1.0,0,-1.0,-1.0,-1.0,34.0,296.0,24.0,320.0,1,0,0,0,705.0,06067,06028,60002909508,642,256.0,-1.0
2021,060002909509,0609509,Alta Murrieta Elementary,0600029,Murrieta Valley Unified,CA-3375200,3375200-6107841,39475 Whitewood Rd.,Murrieta,CA,92563,39475 Whitewood Rd.,Murrieta,CA,92563,(951)696-1403,6,33.5668,-117.1689,348,40140,21,6065,1,1,1,0.0,5.0,,-1.0,-1.0,-1.0,0,-1.0,-1.0,-1.0,35.0,271.0,65.0,336.0,1,0,0,0,814.0,06067,06028,60002909509,642,213.0,-1.0
2021,060002909510,0609510,E. Hale Curran Elementary,0600029,Murrieta Valley Unified,CA-3375200,3375200-6107858,40855 Chaco Canyon Rd.,Murrieta,CA,92562,40855 Chaco Canyon Rd.,Murrieta,CA,92562,(951)696-1405,6,33.5799,-117.2149,348,40140,21,6065,1,1,1,0.0,5.0,,-1.0,-1.0,-1.0,0,-1.0,-1.0,-1.0,25.0,248.0,50.0,298.0,1,0,0,0,615.0,06067,06028,60002909510,642,200.0,-1.0
2021,060002909511,0609511,Rail Ranch Elementary,0600029,Murrieta Valley Unified,CA-3375200,3375200-6108153,25030 Via Santee Rd.,Murrieta,CA,92563,25030 Via Santee Rd.,Murrieta,CA,92563,(951)696-1404,6,33.5791,-117.1733,348,40140,21,6065,1,1,1,0.0,5.0,,-1.0,-1.0,-1.0,0,-1.0,-1.0,-1.0,25.0,241.0,47.0,288.0,1,0,0,0,637.0,06067,06028,60002909511,642,196.0,-1.0
2021,060002909685,0609685,Murrieta Valley High,0600029,Murrieta Valley Unified,CA-3375200,3375200-3330529,42200 Nighthawk Way,Murrieta,CA,92562,42200 Nighthawk Way,Murrieta,CA,92562,(951)696-1408,6,33.563124,-117.230606,348,40140,21,6065,3,1,1,9.0,12.0,,-1.0,-1.0,-1.0,0,-1.0,-1.0,-1.0,97.0,524.0,85.0,609.0,0,1,0,0,2295.0,06067,06028,60002909685,642,417.0,-1.0
2021,060002909686,0609686,Shivela Middle,0600029,Murrieta Valley Unified,CA-3375200,3375200-6108849,24515 Lincoln Ave.,Murrieta,CA,92562,24515 Lincoln Ave.,Murrieta,CA,92562,(951)696-1406,6,33.5723,-117.1983,348,40140,21,6065,2,1,1,6.0,8.0,,-1.0,-1.0,-1.0,0,-1.0,-1.0,-1.0,55.0,497.0,66.0,563.0,0,0,1,0,1309.0,06067,06028,60002909686,642,393.0,-1.0
2021,060002910354,0610354,Daniel N. Buchanan Elementary,0600029,Murrieta Valley Unified,CA-3375200,3375200-6118558,40121 Torrey Pines Rd.,Murrieta,CA,92563,40121 Torrey Pines Rd.,Murrieta,CA,92563,(951)696-1428,6,33.5476,-117.1599,348,40140,21,6065,1,1,1,0.0,5.0,,-1.0,-1.0,-1.0,0,-1.0,-1.0,-1.0,31.0,324.0,41.0,365.0,1,0,0,0,817.0,06067,06028,60002910354,642,268.0,-1.0
2021,060002910590,0610590,Warm Springs Middle,0600029,Murrieta Valley Unified,CA-3375200,3375200-6120554,39245 Calle de Fortuna,Murrieta,CA,92563,39245 Calle de Fortuna,Murrieta,CA,92563,(951)696-3503,6,33.551,-117.1486,348,40140,21,6065,2,1,1,6.0,8.0,,-1.0,-1.0,-1.0,0,-1.0,-1.0,-1.0,39.0,306.0,37.0,343.0,0,0,1,0,847.0,06067,06028,60002910590,642,215.0,-1.0
2021,060002911044,0611044,Antelope Hills Elementary,0600029,Murrieta Valley Unified,CA-3375200,3375200-0108530,36105 Murrieta Oaks Ave.,Murrieta,CA,92562,36105 Murrieta Oaks Ave.,Murrieta,CA,92562,(951)445-4110,6,33.5959,-117.1807,348,40140,21,6065,1,1,1,0.0,5.0,,-1.0,-1.0,-1.0,0,-1.0,-1.0,-1.0,32.0,185.0,16.0,201.0,1,0,0,0,741.0,06067,06028,60002911044,642,143.0,-1.0
2021,060002911239,0611239,Monte Vista Elementary,0600029,Murrieta Valley Unified,CA-3375200,3375200-0100412,37420 Via Mira Mosa,Murrieta,CA,92563,37420 Via Mira Mosa,Murrieta,CA,92563,(951)894-5085,6,33.5778,-117.1452,348,40140,21,6065,1,1,1,0.0,5.0,,-1.0,-1.0,-1.0,0,-1.0,-1.0,-1.0,30.0,266.0,37.0,303.0,1,0,0,0,776.0,06067,06028,60002911239,642,209.0,-1.0
2021,060002911241,0611241,Murrieta Canyon Academy,0600029,Murrieta Valley Unified,CA-3375200,3375200-0102079,24150 Hayes Ave.,Murrieta,CA,92563,24150 Hayes Ave.,Murrieta,CA,92563,(951)696-1661,6,33.560354,-117.23218,348,40140,21,6065,4,4,1,0.0,12.0,,-1.0,-1.0,-1.0,0,-1.0,-1.0,-1.0,32.0,213.0,18.0,231.0,1,1,1,0,632.0,06067,06028,60002911241,642,178.0,-1.0
2021,060002911249,0611249,Vista Murrieta High,0600029,Murrieta Valley Unified,CA-3375200,3375200-0100420,28251 Clinton Keith Rd.,Murrieta,CA,92563,28251 Clinton Keith Rd.,Murrieta,CA,92563,(951)894-5750,6,33.5968,-117.1658,348,40140,21,6065,3,1,1,9.0,12.0,,-1.0,-1.0,-1.0,0,-1.0,-1.0,-1.0,138.0,963.0,117.0,1080.0,0,1,0,0,3665.0,06067,06028,60002911249,642,744.0,-1.0
2021,060002911921,0611921,Lisa J. Mails Elementary,0600029,Murrieta Valley Unified,CA-3375200,3375200-0114058,35185 Briggs Rd.,Murrieta,CA,92563,35185 Briggs Rd.,Murrieta,CA,92563,(951)304-1880,6,33.6098,-117.1307,348,40140,41,6065,1,1,1,0.0,5.0,,-1.0,-1.0,-1.0,0,-1.0,-1.0,-1.0,36.0,182.0,19.0,201.0,1,0,0,0,939.0,06067,06028,60002911921,642,134.0,-1.0
2021,060002912243,0612243,Dorothy McElhinney Middle,0600029,Murrieta Valley Unified,CA-3375200,3375200-0117408,35125 Briggs Rd.,Murrieta,CA,92563,35125 Briggs Rd.,Murrieta,CA,92563,(951)304-1885,6,33.611251,-117.133579,348,40140,41,6065,2,1,1,6.0,8.0,,-1.0,-1.0,-1.0,0,-1.0,-1.0,-1.0,56.0,335.0,52.0,387.0,0,0,1,0,1316.0,06067,06028,60002912243,642,238.0,-1.0
2021,060002912289,0612289,Murrieta Mesa High,0600029,Murrieta Valley Unified,CA-3375200,3375200-0118794,24801 Monroe Ave.,Murrieta,CA,92562,24801 Monroe Ave.,Murrieta,CA,92562,(951)677-0568,6,33.563933,-117.199129,348,40140,21,6065,3,1,1,9.0,12.0,,-1.0,-1.0,-1.0,0,-1.0,-1.0,-1.0,97.0,685.0,102.0,787.0,0,1,0,0,2291.0,06067,06028,60002912289,642,522.0,-1.0
2021,060002914389,0614389,Murrieta Preschool Outreach,0600029,Murrieta Valley Unified,CA-3375200,3375200-0139113,41870 McAlby Ct.,Murrieta,CA,92562,41870 McAlby Ct.,Murrieta,CA,92562,(951)696-1600,6,33.529991,-117.185479,348,40140,41,6065,-1,1,1,,,,-1.0,-1.0,-1.0,0,-1.0,-1.0,-1.0,,,,,0,1,0,1,,06067,06028,60002914389,642,,-1.0
2021,060002914598,0614598,Murrieta Options,0600029,Murrieta Valley Unified,CA-3375200,3375200-0141275,24150 Hayes Ave.,Murrieta,CA,92562,24150 Hayes Ave.,Murrieta,CA,92562,(951)696-1600,6,33.560354,-117.23218,348,40140,21,6065,3,4,3,9.0,12.0,,-1.0,-1.0,-1.0,0,-1.0,-1.0,-1.0,,,,,0,1,0,0,0.0,06067,06028,60002914598,642,,-1.0
2021,060003109475,0609475,Pacific Valley (K-12),0600031,Big Sur Unified,CA-2775150,2775150-2730133,69325 Highway 1,Big Sur,CA,93920,69325 Highway 1,Big Sur,CA,93920,(805)927-4507,6,35.919829,-121.466084,-2,41500,43,6053,4,1,1,0.0,12.0,,-1.0,-1.0,-1.0,0,-1.0,-1.0,-1.0,3.0,9.0,3.0,12.0,1,1,1,0,17.0,06030,06017,60003109475,620,5.0,-1.0
2021,060003202227,0602227,Patricia Dreizler Continuation High,0600032,Redondo Beach Unified,CA-1975341,1975341-1995752,1401 Inglewood Ave.,Redondo Beach,CA,90278,1000 Del Amo St.,Redondo Beach,CA,90277,(310)798-8690,6,33.84775,-118.380438,348,31080,21,6037,3,4,1,9.0,12.0,,-1.0,-1.0,-1.0,0,-1.0,-1.0,-1.0,5.0,18.0,2.0,20.0,0,1,0,0,44.0,06066,06026,60003202227,633,15.0,-1.0
2021,060003204949,0604949,Adams Middle,0600032,Redondo Beach Unified,CA-1975341,1975341-6021992,1401 Inglewood Ave.,Redondo Beach,CA,90278,2600 Ripley Ave.,Redondo Beach,CA,90278,(310)798-8636,6,33.866015,-118.363886,348,31080,21,6037,2,1,1,6.0,8.0,,-1.0,-1.0,-1.0,0,-1.0,-1.0,-1.0,42.0,200.0,18.0,218.0,0,0,1,0,1060.0,06066,06026,60003204949,633,165.0,-1.0
2021,060003204950,0604950,Alta Vista Elementary,0600032,Redondo Beach Unified,CA-1975341,1975341-6022008,1401 Inglewood Ave.,Redondo Beach,CA,90278,815 Knob Hill Ave.,Redondo Beach,CA,90277,(310)798-8650,6,33.828888,-118.378426,348,31080,21,6037,1,1,1,0.0,5.0,,-1.0,-1.0,-1.0,0,-1.0,-1.0,-1.0,22.0,62.0,1.0,63.0,1,0,0,0,562.0,06066,06026,60003204950,633,43.0,-1.0
2021,060003204951,0604951,Beryl Heights Elementary,0600032,Redondo Beach Unified,CA-1975341,1975341-6022024,920 Beryl St.,Redondo Beach,CA,90277,920 Beryl St.,Redondo Beach,CA,90277,(310)798-8611,6,33.852045,-118.383842,348,31080,21,6037,1,1,1,0.0,5.0,,-1.0,-1.0,-1.0,0,-1.0,-1.0,-1.0,16.0,46.0,2.0,48.0,1,0,0,0,420.0,06066,06026,60003204951,633,41.0,-1.0
2021,060003204952,0604952,Birney Elementary,0600032,Redondo Beach Unified,CA-1975341,1975341-6022032,1401 Inglewood Ave.,Redondo Beach,CA,90278,1600 Green Ln.,Redondo Beach,CA,90278,(310)798-8626,6,33.869541,-118.376321,348,31080,21,6037,1,1,1,0.0,5.0,,-1.0,-1.0,-1.0,0,-1.0,-1.0,-1.0,18.0,39.0,2.0,41.0,1,0,0,0,461.0,06066,06026,60003204952,633,33.0,-1.0
2021,060003204955,0604955,Parras (Nick G.) Middle,0600032,Redondo Beach Unified,CA-1975341,1975341-6022081,1401 Inglewood Ave.,Redondo Beach,CA,90278,200 N. Lucia,Redondo Beach,CA,90277,(310)798-8616,6,33.845065,-118.377719,348,31080,21,6037,2,1,1,6.0,8.0,,-1.0,-1.0,-1.0,0,-1.0,-1.0,-1.0,41.0,126.0,4.0,130.0,0,0,1,0,1085.0,06066,06026,60003204955,633,104.0,-1.0
2021,060003204956,0604956,Jefferson Elementary,0600032,Redondo Beach Unified,CA-1975341,1975341-6022099,1401 Inglewood Ave.,Redondo Beach,CA,90278,600 Harkness Ln.,Redondo Beach,CA,90278,(310)798-8631,6,33.860425,-118.380208,348,31080,21,6037,1,1,1,0.0,5.0,,-1.0,-1.0,-1.0,0,-1.0,-1.0,-1.0,22.0,33.0,0.0,33.0,1,0,0,0,509.0,06066,06026,60003204956,633,31.0,-1.0
2021,060003204957,0604957,Lincoln Elementary,0600032,Redondo Beach Unified,CA-1975341,1975341-6022107,1401 Inglewood Ave.,Redondo Beach,CA,90278,2223 Plant Ave.,Redondo Beach,CA,90278,(310)798-8646,6,33.881648,-118.371034,348,31080,21,6037,1,1,1,0.0,6.0,,-1.0,-1.0,-1.0,0,-1.0,-1.0,-1.0,25.0,69.0,3.0,72.0,1,0,0,0,595.0,06066,06026,60003204957,633,51.0,-1.0
2021,060003204958,0604958,Madison Elementary,0600032,Redondo Beach Unified,CA-1975341,1975341-6022115,1401 Inglewood Ave.,Redondo Beach,CA,90278,2200 MacKay Ln.,Redondo Beach,CA,90278,(310)798-8623,6,33.875187,-118.367929,348,31080,21,6037,1,1,1,0.0,5.0,,-1.0,-1.0,-1.0,0,-1.0,-1.0,-1.0,19.0,64.0,1.0,65.0,1,0,0,0,448.0,06066,06026,60003204958,633,58.0,-1.0
2021,060003204960,0604960,Tulita Elementary,0600032,Redondo Beach Unified,CA-1975341,1975341-6022149,1401 Inglewood Ave.,Redondo Beach,CA,90278,1520 Prospect Ave.,Redondo Beach,CA,90277,(310)798-8628,6,33.820682,-118.376079,348,31080,21,6037,1,1,1,0.0,5.0,,-1.0,-1.0,-1.0,0,-1.0,-1.0,-1.0,19.0,48.0,1.0,49.0,1,0,0,0,457.0,06066,06026,60003204960,633,39.0,-1.0
2021,060003204961,0604961,Washington Elementary,0600032,Redondo Beach Unified,CA-1975341,1975341-6022156,1401 Inglewood Ave.,Redondo Beach,CA,90278,1100 Lilienthal Ln.,Redondo Beach,CA,90278,(310)798-8641,6,33.86441,-118.364863,348,31080,21,6037,1,1,1,0.0,5.0,,-1.0,-1.0,-1.0,0,-1.0,-1.0,-1.0,30.0,95.0,13.0,108.0,1,0,0,0,816.0,06066,06026,60003204961,633,83.0,-1.0
2021,060003206330,0606330,Redondo Union High,0600032,Redondo Beach Unified,CA-1975341,1975341-1937143,1401 Inglewood Ave.,Redondo Beach,CA,90278,One Sea Hawk Way,Redondo Beach,CA,90277,(310)798-8665,6,33.845443,-118.384503,348,31080,21,6037,3,1,1,9.0,12.0,,-1.0,-1.0,-1.0,0,-1.0,-1.0,-1.0,113.0,450.0,34.0,484.0,0,1,0,0,3109.0,06066,06026,60003206330,633,382.0,-1.0
2021,060003212165,0612165,Redondo Beach Learning Academy,0600032,Redondo Beach Unified,CA-1975341,1975341-0116285,1401 Inglewood Ave.,Redondo Beach,CA,90278,1000 Del Amo St.,Redondo Beach,CA,90277,(310)798-8690,6,33.84775,-118.380438,348,31080,21,6037,3,4,1,9.0,12.0,,-1.0,-1.0,-1.0,0,-1.0,-1.0,-1.0,1.0,,,,0,1,0,0,7.0,06066,06026,60003212165,633,,-1.0
2021,060003301255,0601255,Bryant Middle,0600033,Dos Palos Oro Loma Joint Unified,CA-2475317,2475317-6025423,16695 N. Bryant Rd.,Dos Palos,CA,93620,16695 N. Bryant Rd.,Dos Palos,CA,93620,(209)392-0240,6,36.976882,-120.609053,488,32900,41,6047,2,1,1,6.0,8.0,,-1.0,-1.0,-1.0,0,-1.0,-1.0,-1.0,25.0,376.0,65.0,441.0,0,0,1,0,523.0,06021,06012,60003301255,616,296.0,-1.0
2021,060003301256,0601256,Dos Palos Elementary,0600033,Dos Palos Oro Loma Joint Unified,CA-2475317,2475317-6025431,2149 Almond St.,Dos Palos,CA,93620,2149 Almond St.,Dos Palos,CA,93620,(209)392-0260,6,36.984075,-120.630078,488,32900,32,6047,1,1,1,0.0,2.0,,-1.0,-1.0,-1.0,0,-1.0,-1.0,-1.0,25.0,400.0,51.0,451.0,1,0,0,0,530.0,06021,06012,60003301256,616,322.0,-1.0
2021,060003301258,0601258,Dos Palos High,0600033,Dos Palos Oro Loma Joint Unified,CA-2475317,2475317-2431203,1701 E. Blossom St.,Dos Palos,CA,93620,1701 E. Blossom St.,Dos Palos,CA,93620,(209)392-0300,6,36.98581,-120.622647,488,32900,32,6047,3,1,1,9.0,12.0,,-1.0,-1.0,-1.0,0,-1.0,-1.0,-1.0,32.0,433.0,116.0,549.0,0,1,0,0,644.0,06021,06012,60003301258,616,284.0,-1.0
2021,060003304680,0604680,Bernhard Marks Elementary,0600033,Dos Palos Oro Loma Joint Unified,CA-2475317,2475317-6112940,1717 Valeria St.,Dos Palos,CA,93620,1717 Valeria St.,Dos Palos,CA,93620,(209)392-0250,6,36.981109,-120.625712,488,32900,32,6047,1,1,1,3.0,5.0,,-1.0,-1.0,-1.0,0,-1.0,-1.0,-1.0,20.0,357.0,71.0,428.0,1,0,0,0,492.0,06021,06012,60003304680,616,284.0,-1.0
2021,060003307695,0607695,Westside High,0600033,Dos Palos Oro Loma Joint Unified,CA-2475317,2475317-2430015,2041 Almond St.,Dos Palos,CA,93620,22368 S. Sixth St.,South Dos Palos,CA,93665,(209)392-0280,6,36.962103,-120.653852,488,32900,32,6047,3,4,1,9.0,12.0,,-1.0,-1.0,-1.0,0,-1.0,-1.0,-1.0,4.0,77.0,3.0,80.0,0,1,0,0,84.0,06021,06012,60003307695,616,63.0,-1.0
2021,060003312656,0612656,Westside Community Day Middle High,0600033,Dos Palos Oro Loma Joint Unified,CA-2475317,2475317-0123091,2041 Almond Ave.,Dos Palos,CA,93620,22368 S. Sixth St.,South Dos Palos,CA,93665,(209)392-0280,6,36.962103,-120.653852,488,32900,32,6047,3,4,1,7.0,12.0,,-1.0,-1.0,-1.0,0,-1.0,-1.0,-1.0,0.0,,,,0,1,1,0,2.0,06021,06012,60003312656,616,,-1.0
2021,060003313609,0613609,Dos Palos Carver Center,0600033,Dos Palos Oro Loma Joint Unified,CA-2475317,2475317-0120782,2041 Almond St.,Dos Palos,CA,93620,2041 Almond St.,Dos Palos,CA,93620,(209)392-0200,6,36.984735,-120.62877,488,32900,32,6047,-1,1,1,,,,-1.0,-1.0,-1.0,0,-1.0,-1.0,-1.0,,,,,0,1,0,1,,06021,06012,60003313609,616,,-1.0
2021,060003401797,0601797,Mattie Washburn Elementary,0600034,Windsor Unified,CA-4975358,4975358-6110993,75 Pleasant Ave.,Santa Rosa,CA,95403,75 Pleasant Ave.,Santa Rosa,CA,95403,(707)837-7727,6,38.541487,-122.79089,488,42220,21,6097,1,1,1,0.0,2.0,,-1.0,-1.0,-1.0,0,-1.0,-1.0,-1.0,21.0,151.0,58.0,209.0,1,0,0,0,435.0,06002,06002,60003401797,602,123.0,-1.0
2021,060003405470,0605470,Windsor High,0600034,Windsor Unified,CA-4975358,4975358-4930228,8695 Windsor Rd.,Windsor,CA,95492,8695 Windsor Rd.,Windsor,CA,95492,(707)837-7767,6,38.54212,-122.817744,488,42220,21,6097,3,1,1,9.0,12.0,,-1.0,-1.0,-1.0,0,-1.0,-1.0,-1.0,78.0,501.0,275.0,776.0,0,1,0,0,1617.0,06002,06002,60003405470,602,288.0,-1.0
2021,060003406982,0606982,Windsor Middle,0600034,Windsor Unified,CA-4975358,4975358-6052351,9500 Brooks Rd. S.,Windsor,CA,95492,9500 Brooks Rd. S.,Windsor,CA,95492,(707)837-7737,6,38.557995,-122.80639,488,42220,21,6097,2,1,1,6.0,8.0,,-1.0,-1.0,-1.0,0,-1.0,-1.0,-1.0,37.0,272.0,106.0,378.0,0,0,1,0,736.0,06002,06002,60003406982,602,187.0,-1.0
2021,060003406983,0606983,Cali Calmecac Language Academy,0600034,Windsor Unified,CA-4975358,4975358-6052369,9491 Starr Rd.,Windsor,CA,95492,9491 Starr Rd.,Windsor,CA,95492,(707)837-7747,6,38.550242,-122.82712,488,42220,21,6097,1,1,1,0.0,8.0,,-1.0,-1.0,-1.0,1,-1.0,-1.0,-1.0,53.0,488.0,190.0,678.0,1,0,1,0,1154.0,06002,06002,60003406983,602,274.0,-1.0
2021,060003408652,0608652,Windsor Oaks Academy,0600034,Windsor Unified,CA-4975358,4975358-4930269,8681 Windsor Rd.,Windsor,CA,95492,8681 Windsor Rd.,Windsor,CA,95492,(707)837-7771,6,38.541241,-122.819815,488,42220,21,6097,3,4,1,9.0,12.0,,-1.0,-1.0,-1.0,0,-1.0,-1.0,-1.0,2.0,18.0,4.0,22.0,0,1,0,0,27.0,06002,06002,60003408652,602,14.0,-1.0
2021,060003409465,0609465,Brooks Elementary,0600034,Windsor Unified,CA-4975358,4975358-6107221,750 Natalie Dr.,Windsor,CA,95492,750 Natalie Dr.,Windsor,CA,95492,(707)837-7717,6,38.557335,-122.81228,488,42220,21,6097,1,1,1,3.0,5.0,,-1.0,-1.0,-1.0,0,-1.0,-1.0,-1.0,20.0,167.0,61.0,228.0,1,0,0,0,497.0,06002,06002,60003409465,602,125.0,-1.0
2021,060003412585,0612585,Bridges Community Based School North County Consortium,0600034,Windsor Unified,CA-4975358,4975358-0121236,9291 Old Redwood Hwy Bldg. 500,Windsor,CA,95492,9291 Old Redwood Hwy Bldg. 500,Windsor,CA,95492,(707)837-7727,6,38.549523,-122.814039,488,42220,21,6097,4,2,1,0.0,12.0,,-1.0,-1.0,-1.0,0,-1.0,-1.0,-1.0,5.0,12.0,4.0,16.0,1,1,1,0,51.0,06002,06002,60003412585,602,9.0,-1.0
2021,060003414243,0614243,North Bay Met Academy,0600034,Windsor Unified,CA-4975358,4975358-0138263,8681 Windsor Rd.,Windsor,CA,95492,8681 Windsor Rd.,Windsor,CA,95492,(707)837-7771,6,38.541241,-122.819815,488,42220,21,6097,4,4,1,0.0,12.0,,-1.0,-1.0,-1.0,0,-1.0,-1.0,-1.0,6.0,20.0,11.0,31.0,1,1,1,0,67.0,06002,06002,60003414243,602,10.0,-1.0
2021,060003501547,0601547,Farmersville Junior High,0600035,Farmersville Unified,CA-5475325,5475325-6100275,650 N. Virginia St.,Farmersville,CA,93223,650 N. Virginia St.,Farmersville,CA,93223,(559)747-0764,6,36.3034,-119.2147,-2,47300,22,6107,2,1,1,7.0,8.0,,-1.0,-1.0,-1.0,0,-1.0,-1.0,-1.0,20.0,338.0,21.0,359.0,0,0,1,0,392.0,06026,06014,60003501547,622,226.0,-1.0
2021,060003501548,0601548,J. E. Hester Elementary,0600035,Farmersville Unified,CA-5475325,5475325-6054084,477 E. Ash St.,Farmersville,CA,93223,477 E. Ash St.,Farmersville,CA,93223,(559)594-5801,6,36.3015,-119.2023,-2,47300,22,6107,1,1,1,0.0,1.0,,-1.0,-1.0,-1.0,0,-1.0,-1.0,-1.0,17.0,269.0,2.0,271.0,1,0,0,0,355.0,06026,06014,60003501548,622,243.0,-1.0
2021,060003501549,0601549,George L. Snowden Elementary,0600035,Farmersville Unified,CA-5475325,5475325-6054076,301 S. Farmersville Blvd.,Farmersville,CA,93223,301 S. Farmersville Blvd.,Farmersville,CA,93223,(559)747-0781,6,36.2961,-119.208,-2,47300,22,6107,1,1,1,2.0,3.0,,-1.0,-1.0,-1.0,0,-1.0,-1.0,-1.0,17.0,317.0,14.0,331.0,1,0,0,0,379.0,06026,06014,60003501549,622,238.0,-1.0
2021,060003507903,0607903,Farmersville High,0600035,Farmersville Unified,CA-5475325,5475325-5430210,631 E. Walnut Ave.,Farmersville,CA,93223,631 E. Walnut Ave.,Farmersville,CA,93223,(559)594-4567,6,36.3105,-119.2001,-2,47300,22,6107,3,1,1,9.0,12.0,,-1.0,-1.0,-1.0,0,-1.0,-1.0,-1.0,35.0,646.0,33.0,679.0,0,1,0,0,725.0,06026,06014,60003507903,622,406.0,-1.0
2021,060003508425,0608425,Deep Creek Academy,0600035,Farmersville Unified,CA-5475325,5475325-5430277,281 S. Farmersville Blvd.,Farmersville,CA,93223,281 S. Farmersville Blvd.,Farmersville,CA,93223,(559)747-6205,6,36.2968,-119.2076,-2,47300,22,6107,3,4,1,9.0,12.0,,-1.0,-1.0,-1.0,0,-1.0,-1.0,-1.0,3.0,51.0,1.0,52.0,0,1,0,0,57.0,06026,06014,60003508425,622,39.0,-1.0
2021,060003511532,0611532,Freedom Elementary,0600035,Farmersville Unified,CA-5475325,5475325-0106021,571 E. Citrus,Farmersville,CA,93223,575 E. Citrus,Farmersville,CA,93223,(559)592-2662,6,36.3075,-119.2018,-2,47300,22,6107,2,1,1,4.0,6.0,,-1.0,-1.0,-1.0,0,-1.0,-1.0,-1.0,20.0,485.0,25.0,510.0,1,0,0,0,555.0,06026,06014,60003511532,622,338.0,-1.0
2021,060003601095,0601095,American Lakes,0600036,Natomas Unified,CA-3475283,3475283-6100432,2800 Stonecreek Dr.,Sacramento,CA,95833,2800 Stonecreek Dr.,Sacramento,CA,95833,(916)567-5500,6,38.616983,-121.493524,472,40900,11,6067,1,1,1,0.0,8.0,,-1.0,-1.0,-1.0,0,-1.0,-1.0,-1.0,28.0,431.0,37.0,468.0,1,0,1,0,619.0,06007,06006,60003601095,606,344.0,-1.0
2021,060003601108,0601108,Jefferson,0600036,Natomas Unified,CA-3475283,3475283-6104731,2001 Pebblewood,Sacramento,CA,95833,2001 Pebblewood,Sacramento,CA,95833,(916)567-5580,6,38.621455,-121.50757,472,40900,11,6067,1,1,1,0.0,8.0,,-1.0,-1.0,-1.0,0,-1.0,-1.0,-1.0,30.0,455.0,56.0,511.0,1,0,1,0,686.0,06007,06006,60003601108,606,354.0,-1.0
2021,060003601114,0601114,Bannon Creek,0600036,Natomas Unified,CA-3475283,3475283-6107981,2775 Millcreek Dr.,Sacramento,CA,95833,2775 Millcreek Dr.,Sacramento,CA,95833,(916)567-5600,6,38.615621,-121.503714,472,40900,11,6067,1,1,1,0.0,8.0,,-1.0,-1.0,-1.0,0,-1.0,-1.0,-1.0,24.0,314.0,29.0,343.0,1,0,1,0,458.0,06007,06006,60003601114,606,239.0,-1.0
2021,060003603755,0603755,Natomas High,0600036,Natomas Unified,CA-3475283,3475283-3430584,3301 Fong Ranch Rd.,Sacramento,CA,95834,3301 Fong Ranch Rd.,Sacramento,CA,95834,(916)641-4960,6,38.628297,-121.494968,472,40900,11,6067,3,1,1,9.0,12.0,,-1.0,-1.0,-1.0,0,-1.0,-1.0,-1.0,56.0,724.0,67.0,791.0,0,1,0,0,1203.0,06007,06006,60003603755,606,519.0,-1.0
2021,060003606335,0606335,Discovery High,0600036,Natomas Unified,CA-3475283,3475283-3430626,3401 Fong Ranch Rd.,Sacramento,CA,95834,3401 Fong Ranch Rd.,Sacramento,CA,95834,(916)928-5200,6,38.633364,-121.494518,472,40900,11,6067,3,4,1,9.0,12.0,,-1.0,-1.0,-1.0,0,-1.0,-1.0,-1.0,10.0,49.0,6.0,55.0,0,1,0,0,88.0,06007,06006,60003606335,606,35.0,-1.0
2021,060003608582,0608582,Natomas Middle,0600036,Natomas Unified,CA-3475283,3475283-6117527,3200 N. Park Dr.,Sacramento,CA,95835,3200 N. Park Dr.,Sacramento,CA,95835,(916)567-5540,6,38.666516,-121.532348,472,40900,11,6067,2,1,1,6.0,8.0,,-1.0,-1.0,-1.0,0,-1.0,-1.0,-1.0,38.0,380.0,25.0,405.0,0,0,1,0,619.0,06007,06006,60003608582,606,282.0,-1.0
2021,060003608583,0608583,Natomas Park Elementary,0600036,Natomas Unified,CA-3475283,3475283-6117535,4700 Crest Dr.,Sacramento,CA,95835,4700 Crest Dr.,Sacramento,CA,95835,(916)928-5234,6,38.660606,-121.503071,472,40900,11,6067,1,1,1,0.0,5.0,,-1.0,-1.0,-1.0,0,-1.0,-1.0,-1.0,29.0,346.0,24.0,370.0,1,0,0,0,648.0,06007,06006,60003608583,606,264.0,-1.0
2021,060003610359,0610359,Two Rivers Elementary,0600036,Natomas Unified,CA-3475283,3475283-6118624,3201 W. River Dr.,Sacramento,CA,95833,3201 W. River Dr.,Sacramento,CA,95833,(916)567-5520,6,38.610368,-121.533663,472,40900,11,6067,1,1,1,0.0,5.0,,-1.0,-1.0,-1.0,0,-1.0,-1.0,-1.0,27.0,239.0,43.0,282.0,1,0,0,0,596.0,06007,06006,60003610359,606,183.0,-1.0
2021,060003611084,0611084,Inderkum High,0600036,Natomas Unified,CA-3475283,3475283-0102236,2500 New Market Dr.,Sacramento,CA,95835,2500 New Market Dr.,Sacramento,CA,95835,(916)567-5640,6,38.658372,-121.517194,472,40900,11,6067,3,1,1,9.0,12.0,,-1.0,-1.0,-1.0,0,-1.0,-1.0,-1.0,94.0,870.0,127.0,997.0,0,1,0,0,2347.0,06007,06006,60003611084,606,594.0,-1.0
2021,060003611085,0611085,Witter Ranch Elementary,0600036,Natomas Unified,CA-3475283,3475283-0102277,3790 Poppy Hill Way,Sacramento,CA,95834,3790 Poppy Hill Way,Sacramento,CA,95834,(916)567-5620,6,38.637041,-121.532391,472,40900,11,6067,1,1,1,0.0,5.0,,-1.0,-1.0,-1.0,0,-1.0,-1.0,-1.0,28.0,297.0,36.0,333.0,1,0,0,0,587.0,06007,06006,60003611085,606,222.0,-1.0
2021,060003611087,0611087,Westlake Charter,0600036,Natomas Unified,CA-3475283,3475283-0108860,2680 Mabry Dr.,Sacramento,CA,95835,2680 Mabry Dr.,Sacramento,CA,95835,(916)567-5760,6,38.67564,-121.526258,472,40900,11,6067,4,1,1,0.0,12.0,,-1.0,-1.0,-1.0,1,-1.0,-1.0,-1.0,52.0,322.0,58.0,380.0,1,1,1,0,1129.0,06007,06006,60003611087,606,254.0,-1.0
2021,060003611734,0611734,Heron,0600036,Natomas Unified,CA-3475283,3475283-0111138,5151 Banfield Dr.,Sacramento,CA,95835,5151 Banfield Dr.,Sacramento,CA,95835,(916)567-5680,6,38.667877,-121.511475,472,40900,11,6067,1,1,1,0.0,8.0,,-1.0,-1.0,-1.0,0,-1.0,-1.0,-1.0,44.0,272.0,35.0,307.0,1,0,1,0,968.0,06007,06006,60003611734,606,206.0,-1.0
2021,060003611735,0611735,Natomas Pacific Pathways Prep,0600036,Natomas Unified,CA-3475283,3475283-0112425,3700 Del Paso Rd.,Sacramento,CA,95834,3700 Del Paso Rd.,Sacramento,CA,95834,(916)567-5740,6,38.6551,-121.546082,472,40900,11,6067,3,1,1,9.0,12.0,,-1.0,-1.0,-1.0,1,-1.0,-1.0,-1.0,30.0,200.0,53.0,253.0,0,1,0,0,632.0,06007,06006,60003611735,606,150.0,-1.0
2021,060003612351,0612351,H. Allen Hight Elementary,0600036,Natomas Unified,CA-3475283,3475283-0116806,3200 N. Park Dr.,Sacramento,CA,95835,3200 N. Park Dr.,Sacramento,CA,95835,(916)567-5700,6,38.666516,-121.532348,472,40900,11,6067,1,1,1,0.0,5.0,,-1.0,-1.0,-1.0,0,-1.0,-1.0,-1.0,31.0,380.0,42.0,422.0,1,0,0,0,727.0,06007,06006,60003612351,606,285.0,-1.0
2021,060003612523,0612523,Natomas Pacific Pathways Prep Middle,0600036,Natomas Unified,CA-3475283,3475283-0120113,3700 Del Paso Rd.,Sacramento,CA,95834,3700 Del Paso Rd.,Sacramento,CA,95834,(916)567-5740,6,38.6551,-121.546082,472,40900,11,6067,2,1,1,6.0,8.0,,-1.0,-1.0,-1.0,1,-1.0,-1.0,-1.0,19.0,172.0,31.0,203.0,0,0,1,0,511.0,06007,06006,60003612523,606,134.0,-1.0
2021,060003613189,0613189,Leroy Greene Academy,0600036,Natomas Unified,CA-3475283,3475283-0126060,2950 W. River Dr.,Sacramento,CA,95833,2950 W. River Dr.,Sacramento,CA,95833,(916)567-5560,6,38.610646,-121.527983,472,40900,11,6067,3,1,1,6.0,12.0,,-1.0,-1.0,-1.0,1,-1.0,-1.0,-1.0,40.0,333.0,58.0,391.0,0,1,1,0,758.0,06007,06006,60003613189,606,247.0,-1.0
2021,060003614043,0614043,Natomas Pacific Pathways Prep Elementary,0600036,Natomas Unified,CA-3475283,3475283-0134049,4400 E. Commerce Way,Sacramento,CA,95834,4400 E. Commerce Way,Sacramento,CA,95834,(916)567-5741,6,38.651228,-121.525268,472,40900,11,6067,1,1,1,0.0,5.0,,-1.0,-1.0,-1.0,1,-1.0,-1.0,-1.0,16.0,115.0,36.0,151.0,1,0,0,0,401.0,06007,06006,60003614043,606,92.0,-1.0
2021,060003614188,0614188,Paso Verde,0600036,Natomas Unified,CA-3475283,3475283-0135194,5240 PV Scholars Ln.,Sacramento,CA,95835,5240 PV Scholars Ln.,Sacramento,CA,95835,(916)567-5810,6,38.662,-121.551529,472,40900,41,6067,1,1,1,0.0,8.0,,-1.0,-1.0,-1.0,0,-1.0,-1.0,-1.0,37.0,266.0,36.0,302.0,1,0,1,0,786.0,06007,06006,60003614188,606,205.0,-1.0
2021,060003614537,0614537,Larry G. Meeks Academy,0600036,Natomas Unified,CA-3475283,3475283-0140624,2775 Milcreek Dr.,Sacramento,CA,95833,2775 Millcreek Dr.,Sacramento,CA,95833,(916)567-5608,6,38.614697,-121.50315,472,40900,11,6067,1,1,1,0.0,8.0,,-1.0,-1.0,-1.0,0,-1.0,-1.0,-1.0,12.0,240.0,17.0,257.0,1,0,1,0,416.0,06007,06006,60003614537,606,187.0,-1.0
2021,060003701550,0601550,Ferndale Elementary,0600037,Ferndale Unified,CA-1275374,1275374-6007843,164 Shaw Ave.,Ferndale,CA,95536,164 Shaw Ave.,Ferndale,CA,95536,(707)786-5300,6,40.577635,-124.267588,-2,21700,42,6023,1,1,1,0.0,8.0,,-1.0,-1.0,-1.0,0,-1.0,-1.0,-1.0,17.0,164.0,21.0,185.0,1,0,1,0,339.0,06002,06002,60003701550,602,139.0,-1.0
2021,060003701551,0601551,Ferndale High,0600037,Ferndale Unified,CA-1275374,1275374-1232909,1231 Main St.,Ferndale,CA,95536,1231 Main St.,Ferndale,CA,95536,(707)786-5900,6,40.584884,-124.259977,-2,21700,42,6023,3,1,1,9.0,12.0,,-1.0,-1.0,-1.0,0,-1.0,-1.0,-1.0,12.0,55.0,8.0,63.0,0,1,0,0,137.0,06002,06002,60003701551,602,52.0,-1.0
2021,060003801994,0601994,Mattole Triple Junction High,0600038,Mattole Unified,CA-1275382,1275382-1230085,PO Box 211,Petrolia,CA,95558,29289 Chambers Rd.,Petrolia,CA,95558,(707)629-3250,6,40.321704,-124.285548,-2,21700,43,6023,3,1,1,9.0,12.0,,-1.0,-1.0,-1.0,0,-1.0,-1.0,-1.0,1.0,3.0,0.0,3.0,0,1,0,0,9.0,06002,06002,60003801994,602,3.0,-1.0
